가맹점코드,위도,경도,가맹점명,주소
UKSL4T,37.4924409,127.0309581,브릭샌드(강남역점),06232) 서울특별시 강남구 강남대로 지하396 (역삼동) 강남역 신분당선 지하1층 4번
Q0K0TE,37.4120139,127.0978311,밀본(파미어스몰점)_QR,13449) 경기도 성남시 수정구 창업로 17 (시흥동) 판교아이스퀘어 B동 2층 201-1호(시흥동)
1FQQS7,37.4404576,126.4310224,만수무강QR,22385) 인천 중구 공항서로 141-1 B동 1층 일부 
0AH7MB,37.3606013,127.1128787,분당곱창_QR,13612) 경기도 성남시 분당구 내정로7번길 15-1 (정자동) 1층
0NDG9X,37.3602348,127.112882,티씨오티씨(TCOTC)_QR,13612) 경기도 성남시 분당구 불정로71번길 4-4 (정자동) 1층
25PXT0,37.3602082,127.1115862,이레스시,13612) 경기도 성남시 분당구 불정로65번길 1 (정자동) 1층
6ZLZUW,37.3609733,127.1135774,란반_QR,13612) 경기도 성남시 분당구 내정로11번길 9 (정자동) 1층
G1H5Z9,37.3602084,127.1125879,카산도(정자본점)_QR,13612) 경기도 성남시 분당구 불정로71번길 2 (정자동) 1층
G47RTG,37.3605882,127.1118947,빙토피아_QR,13612) 경기도 성남시 분당구 불정로65번길 6 (정자동) 1층
HWYTY5,37.3614021,127.1135651,토속정_QR,13612) 경기도 성남시 분당구 내정로11번길 10-3 (정자동) 1층
IKZUDY,37.3605975,127.1138708,정성죽_QR,13612) 경기도 성남시 분당구 내정로7번길 7 (정자동) 1층
KX4HMU,37.3602278,127.1138708,스시생선가게,13612) 경기도 성남시 분당구 불정로77번길 4-6 (정자동) 1층
OG34KF,37.3606115,127.1127328,도담 참숯닭갈비 봉평막국수_QR,13612) 경기도 성남시 분당구 내정로7번길 17 (정자동) 1층
SH9A0Q,37.360838,127.1134408,마린보이코다리1번가(분당정자점),13612) 경기도 성남시 분당구 불정로77번길 10 (정자동) 1층
T45O1R,37.3615238,127.1145117,전주콩뿌리 콩나물국밥,13612) 경기도 성남시 분당구 불정로87번길 18 (정자동) 1층
UAP58F,37.3613833,127.1131618,함흥미식관,13612) 경기도 성남시 분당구 불정로77번길 15 (정자동) 1층
WNO4FP,37.360841,127.1135739,평안도왕순대(본점)_QR,13612) 경기도 성남시 분당구 내정로7번길 10-1 (정자동) 1층
WX0MW5,37.3609978,127.1131739,고향집삼계탕_QR,13612) 경기도 성남시 분당구 내정로11번길 13 (정자동) 1층
YTKSXN,37.3604459,127.1141448,백청우칼국수,13612) 경기도 성남시 분당구 불정로77번길 4-9 (정자동) 1층
907DBU,37.4040238,127.1000896,바나프레소 (판교우림W시티점),13486) 경기도 성남시 분당구 판교로255번길 9-22 (삼평동) 1층 113호
LM7ZR7,37.4901319,127.0056662,바나프레소 (롯데마트서초점),"06655) 서울특별시 서초구 서초대로38길 12 (서초동, 마제스타시티, 힐스테이트 서리풀) 지하1층"
8UFVYZ,37.3647862,127.1070939,문어세상 해천탕(정자역점),"13558) 경기도 성남시 분당구 성남대로331번길 9-9 (정자동) 2층 201호,202호"
PWBTGH,37.49459,127.1191309,맛있는 샤브 돈까스_KIOSK,05719) 서울특별시 송파구 송파대로30길 16 지하1층 101호 
0K11XP,37.5657556,126.8256199,스시도쿠(마곡코엑스점),"07797) 서울특별시 강서구 마곡중앙로 143 (마곡동) ,본동 지하2층 222호(마곡동,르뤠스트 시티)"
U2IGF9,37.377233,127.1121602,플러스양파_QR,13595) 경기도 성남시 분당구 백현로101번길 13 (수내동) 월드프라자빌딩 2층 203호
CYGQEJ,37.377233,127.1121602,양파식당(플러스양파),13595) 경기도 성남시 분당구 백현로101번길 13 (수내동) 월드프라자빌딩 2층 203호
MPDJV2,37.400662,127.1066111,윤가네용대리황태국(판교점)_QR,"13494) 경기 성남시 분당구 대왕판교로 660 삼평동, 유스페이스1 1층 "
DZBAVN,37.4926052,127.0114634,뽕사부(교대점),06645) 서울특별시 서초구 서초대로 270 (서초동)  1층
LVC96J,37.4896777,127.0075852,오구피제리아(서초점),"06656) 서울특별시 서초구 반포대로27길 13 (서초동, 서초꽃마을 주얼리) 1층"
R4WF9K,37.4896777,127.0075852,로아스토어 카페(서초점),"06656) 서울특별시 서초구 반포대로27길 13 (서초동, 서초꽃마을 주얼리) 지하1층"
TL0JWQ,37.547545,127.0544523,오니기리와이규동(성수점)_QR,04793) 서울특별시 성동구 성수일로12길 34 (성수동2가) 1층
3PLICZ,37.5135726,127.1100969,솔직한우(방이점)_QR,05547) 서울특별시 송파구 올림픽로32길 33 (방이동) 지하1층~지상2층(방이동)
IPFPKB,37.5016237,127.0383927,솔직한우(역삼점)_QR,"06141) 서울특별시 강남구 테헤란로 205 (역삼동) 지하1층~지상2층(역삼동, 역삼빌딩)"
YS21LR,37.5101521,127.0844263,솔직한우(잠실점)_QR,05559) 서울특별시 송파구 백제고분로9길 49 (잠실동) 1층(잠실동)
QZE8F1,37.5657556,126.8256199,브레디몽(마곡코엑스점),07797) 서울특별시 강서구 마곡중앙로 143 (마곡동)  (마곡동) 본동 지하 2층 232호 브레디몽
4UFIY9,33.5069938,126.4935191,향토음식점,63115) 제주특별자치도 공항로 2 4층
SELF_Q82DFO,37.4020635,127.1070821,거금도(판교점),13494) 경기도 성남시 분당구 대왕판교로 670  유스페이스2 B동 B115호 수작 
7GF4ER,37.394296,127.1103268,영용지교(우몽가든 판교점),"13529) 경기 성남시 분당구 판교역로 152 백현동, 알파돔타워, 1층 "
CV5IW4,37.5724912,126.9742671,착한코다리,03173) 서울특별시 종로구 새문안로5가길 3-1 (당주동) 1층
UK2D59,37.4120139,127.0978311,101번지 남산돈까스(판교파미어스몰점),13449) 경기도 성남시 수정구 창업로 17 (시흥동) C동 지하1층 B109-2호
T6FFTS,37.4011402,127.1073465,소해,13494) 경기도 성남시 분당구 대왕판교로 660 (삼평동) 221호
1JL48K,37.3777866,127.1118045,준 이자카야 라멘 초(덮)밥,13595) 경기도 성남시 분당구 황새울로200번길 9-7 (수내동) 1층 107호
2227SX,37.5325939,127.1320434,미역쿡_QR,05389) 서울특별시 강동구 천호대로170길 66 (성내동) 1층
C3JCJV,37.4855059,127.0310379,불로삼계백숙_QR,06734) 서울특별시 서초구 서운로6길 30 (서초동)  B1
OLYV3O,37.4912771,127.0113937,마라공방(교대점),"06646) 서울특별시 서초구 반포대로28길 54 (서초동)  서초동, 대진빌딩 1층 "
98KVN3,37.3976861,127.1114189,카페버니_QR,13524) 경기도 성남시 분당구 판교역로192번길 16 (삼평동) 1층
SELF_CP9B82,37.5586238,126.9732635,백채김치찌개 (서울역점),04512) 서울특별시 중구 세종대로 17 (남대문로5가) 지하1층 2호 
AAUV57,37.491136,127.011496,한창희 천하일면(서초점),"06646) 서울특별시 서초구 반포대로28길 56-6 (서초동) 1층 101호(서초동,동환빌딩)"
V7TLWY,37.4867831,127.0311273,샤브온당(양재역점),06730) 서울특별시 서초구 남부순환로347길 54 (서초동) 1층
C24BVS,37.377233,127.1121602,월선네(수내점),13595) 경기도 성남시 분당구 백현로101번길 13 (수내동) 2층
HQE74V,33.488434,126.4809901,경일낙지,"63098) 제주특별자치도 제주시 다랑곶길 30 (노형동, 경일빌라) 1층"
IB50NK,33.4839036,126.4758565,료신(노형점)_QR,63102) 제주특별자치도 제주시 노형로 377 (노형동) 1층
ISHMGS,33.4897882,126.4868213,본죽&비빔밥caf(신제주점)_QR,63129) 제주특별자치도 제주시 삼무로 2 (연동) 1층
L0GI15,33.487105,126.484241,일과삶사이틈_QR,63081) 제주특별자치도 제주시 원노형5길 17-9 (노형동) 1층
LZYC01,33.4879447,126.4833408,일산칼국수_QR,63081) 제주특별자치도 제주시 도령로 40 (노형동) 1층
WKKA7N,33.4870303,126.4805326,제주삼호복집_QR,63098) 제주특별자치도 제주시 도령로 11 (노형동) 1층
VFSCXB,33.4885859,126.4811498,요달의찜닭(제주노형점)_QR,63098) 제주특별자치도 제주시 다랑곶길 32 (노형동) 1층
X1UGAA,37.4844697,126.8932895,행복한 한식뷔페_QR,"08381) 서울특별시 구로구 디지털로29길 38 (구로동) 1층 106호(구로동, 에이스테크노타워)"
44DSAS,33.4055621,126.2565193,문쏘(제주협재점)_QR,63012) 제주특별자치도 제주시 한림읍 한림상로 15-5 1층
5MPB95,33.4030612,126.2511769,회나루_QR,63012) 제주특별자치도 제주시 한림읍 옹포1길 14 1층
6L35TI,33.4058186,126.2563891,카페리꼬_QR,63012) 제주특별자치도 제주시 한림읍 한림로 542 1층
8ENDJQ,33.4050246,126.2579304,옹포별장가든_QR,63012) 제주특별자치도 제주시 한림읍 한림상로 24 1층
CI72AN,33.4059402,126.2553529,옹포졸복집(청계정원)_QR,63012) 제주특별자치도 제주시 한림읍 한림해안로 8 (씨비양빌리지) 101호
NXPE86,33.4073285,126.2577099,어박사(한림본점)_QR,63013) 제주특별자치도 제주시 한림읍 한림로 564 1층
OFLSMA,33.4040256,126.2541426,옹포상회_QR,63012) 제주특별자치도 제주시 한림읍 월계로 10 1층
UM1YYG,33.4077468,126.2535745,고향흑돼지_QR,63012) 제주특별자치도 제주시 한림읍 한림해안로 29 1층
VZFJ31,33.4051001,126.255347,반올림피자(한림점)_QR,63012) 제주특별자치도 제주시 한림읍 한림로 530 1층
WSW0XJ,33.4033959,126.2523107,난춘식당_QR,63012) 제주특별자치도 제주시 한림읍 한림로 496 1층
MHQQDF,37.5170285,127.0304925,토브버거_QR,06051) 서울특별시 강남구 도산대로30길 46 (논현동) 1층
32OCQB,37.4120139,127.0978311,거궁찬(판교점)_QR,13449) 경기도 성남시 수정구 창업로 17 (시흥동) 아이스퀘어 b동 1층 104호
3LJ2SB,37.4121393,127.0949763,비코(Back In The Corner)_QR,13449) 경기도 성남시 수정구 창업로 42 (시흥동) 지하 2층
3SW3TQ,37.4121393,127.0949763,이태리부대찌개(제2판교점)_QR,13449) 경기도 성남시 수정구 창업로 42 (시흥동) 지하 1층
5OSN1S,37.4120139,127.0978311,엄니도시락한식뷔페(판교아이스퀘어점)_QR,13449) 경기도 성남시 수정구 창업로 17 (시흥동) F동 지하1층 B104~B107호
5PE34C,37.4120139,127.0978311,종로북앤베이커리(판교파미어스몰)_QR,13449) 경기도 성남시 수정구 창업로 17 (시흥동) B동 B1F 
68RLKG,37.4137226,127.099789,힘난다버거(판교TC점)_QR,13449) 경기도 성남시 수정구 대왕판교로 815 (시흥동) 1층
8AQJIE,37.4134343,127.0983949,시먼당(파미어스몰점)_QR,13449) 경기도 성남시 수정구 창업로 18 (시흥동) 2층
8HNLXR,37.4127277,127.0961281,가든서비스(바캉스)_QR,"13449) 경기도 성남시 수정구 창업로40번길 6 (시흥동, 판교 제2테크노밸리 LH 1단지) 지하 2층"
H9H6S3,37.4144078,127.1013035,짬뽕지존(판교점)_QR,13448) 경기도 성남시 수정구 대왕판교로 830 (시흥동) 1층
KAQXPL,37.4120139,127.0978311,파파보틀_QR,13449) 경기도 성남시 수정구 창업로 17 (시흥동) 지하 1층
MNDFR3,37.4134343,127.0983949,샐리쿡 밍_QR,13449) 경기도 성남시 수정구 창업로 18 (시흥동) 1층
NK4S4X,37.4120139,127.0978311,모모유부(판교파미어스몰점)_QR,13449) 경기도 성남시 수정구 창업로 17 (시흥동) 지하1층 비104-1호
V13C4O,37.4093159,127.097797,청계산담백미_QR,13449) 경기도 성남시 수정구 달래내로 22 (금토동) 1층
X7ZGMI,37.4120426,127.0926859,단무지_QR,13449) 경기도 성남시 수정구 창업로40번길 30 (시흥동) 지하 2층
8OZX9N,37.4766455,126.8895785,얌얌 한식뷔페_QR,08514) 서울특별시 금천구 디지털로10길 37 (가산동) 235~237호(가산동)
7HCR14,37.4171699,127.2570044,"두레정가보쌈, 순대국",12739) 경기도 광주시 중앙로 196 (송정동) 1층
9GYBBT,37.3979519,127.1125344,모토이시(판교점),"13524) 경기도 성남시 분당구 분당내곡로 159 (삼평동) A동 1층 115호, 116호"
CKNYRP,37.4127627,127.2560172,송정국수,12755) 경기도 광주시 중앙로145번길 10 (경안동) 1층
I1EWLE,37.4160315,127.2479562,이삭토스트(광주탄벌점),"12750) 경기도 광주시 벌원길 63-3 (탄벌동, 미래빌딩) 1층 102호 "
AA2VWK,37.5312873,126.9715168,용산삼계탕_QR,04382) 서울특별시 용산구 한강대로48길 20 (한강로2가) (한강로2가)
FK7AWD,37.5298108,126.9700636,용산토리_QR,"04386) 서울특별시 용산구 한강대로38가길 7-18 (한강로2가) (한강로2가,은풍빌딩)"
D9N5XV,37.3387471,127.110711,왕고집 참숯구이,"13637) 경기도 성남시 분당구 구미로9번길 8 (구미동, 세종그랑시아) 1층 "
PZH_8278,35.9424486,128.6298636,피자헛(연경봉무점),41003) 대구광역시 동구 동화천로70길 39 (지묘동) 105호
SELF_M87M5N,37.3975108,127.1120412,임 아로이,13524) 경기도 성남시 분당구 판교역로192번길 14-2 (삼평동) 2층 211호 
6KCWEU,37.3843546,127.1219861,분당순두부칼국수&분당쭈꾸미,13591) 경기도 성남시 분당구 분당로53번길 15 (서현동) 2층 204호
NRLDH5,37.400662,127.1066111,카페우드진(판교테크노밸리점)_KIOSK,13494) 경기 성남시 분당구 대왕판교로 660 224호 .
PENOXD,37.4124594,127.0955824,커스텀커피(판교테크노밸리점),13449) 경기 성남시 수정구 창업로40번길 6 근린생활시설동 지하2층 3호
T4TMND,37.4020635,127.1070821,커스텀커피(삼평동점),13494) 경기도 성남시 분당구 대왕판교로 670 1층 121호
2R1BQE,37.3614538,127.1065726,선비칼국수(성남분당정자역점),"13559) 경기도 성남시 분당구 정자일로 120 (정자동, 삼성아데나루체) ,1층 115~116호(정자동, 삼성아데나루체)"
PFNS0Q,37.400662,127.1066111,미메이라_KIOSK,13494) 경기도 성남시 분당구 대왕판교로 660 (삼평동) 지하 1층
HY5S0X,37.3602878,127.1065184,선비칼국수(성남분당정자역점),"13559) 경기도 성남시 분당구 정자일로 120 (정자동, 삼성아데나루체) 1층 115~116호(정자동, 삼성아데나루체)"
8G8WLS,37.5673898,126.9830224,가마솥순대국밥(을지로입구역점),04540) 서울특별시 중구 남대문로 114-1 (남대문로1가) 1층
XVEH1P,37.5634308,126.82665,슬로우캘리(마곡르웨스트점),"07797) 서울특별시 강서구 마곡중앙로 111, 지하 2층 B226, B246호"
72W221,37.4012686,127.1086539,프레퍼스다이어트푸드(판교점),"13494) 경기도 성남시 분당구 판교역로 231 (삼평동) 1층 109호 (삼평동,에이치스퀘어에스동)"
SMRW67,37.4783216,126.8927912,영향,08528) 서울특별시 금천구 남부순환로108길 7 (가산동) 지하 1층
55IVPX,37.5618881,126.8371087,황마돈 발산돈까스,07794) 서울특별시 강서구 마곡중앙8로5길 11 마곡파인스퀘어3차 104호
TLGB8U,37.6574145,126.7715772,투썸플레이스(일산문화공원점),10402) 경기도 고양시 일산동구 정발산로 31-17 (장항동) 1층 투썸플레이스 일산문화공원점 
RY1VMM,37.507849,127.0610464,투썸플레이스(삼성역점),"06181) 서울특별시 강남구 테헤란로 520, 삼안빌딩 "
JGT525,37.5673455,127.0075688,탁사발두부공방(동대문역사문화역점),"04564) 서울특별시 중구 장충단로 249-28 (을지로6가) 지하1층,1층"
MKW3M6,37.5619989,126.796365,모두락(카페3호점)_QR,07505) 서울특별시 강서구 하늘길 70 (과해동) 1층
R1KM9P,37.3964815,127.11193,해미옥 판교점,13524) 경기도 성남시 분당구 대왕판교로606번길 41 (삼평동) 지하 1층 B02호
XFZTKX,37.5215485,126.9229429,우나기 욘다이메 카쿠카와,07321) 서울특별시 영등포구 의사당대로 96 (여의도동) 2층
NHNNDT,37.535489,127.134836,메가MGC커피(강동역점),05355) 서울특별시 강동구 천호대로 1107
CJ99M6,36.0737835,128.3935648,메가MGC커피(칠곡석적우방점),"39843) 경상북도 칠곡군 석적읍 석적로 933-4 , 1층 "
HWVYAC,37.400662,127.1066111,양우양꼬치(점심뷔페)_QR,"13494) 경기도 성남시 분당구 대왕판교로 660 (삼평동) B동 144호,152호,153호,154호(삼평동, 유스페이스1)"
LMHLH3,37.5688515,126.8273387,더블타코(마곡나루점),"07788) 서울특별시 강서구 마곡중앙로 161-8 (마곡동) 제비동 제1층 116호(마곡동,두산더랜드파크)"
PZH_8932_2,36.1049013,128.419971,피자헛(구미인동점),39397) 경상북도 구미시 인동2길 6 (진평동) 1층 피자헛
QK4351,37.4825151,126.8972765,정심재(본점),"08390) 서울특별시 구로구 디지털로26길 111 1층 108호 구로동, 제이앤케이디지털타워 "
SELF_MMQEW9,37.4120426,127.0926859,주니아(판교it센터점)_QR,"13449) 경기도 성남시 수정구 창업로40번길 30 (시흥동) B208,B209"
1F50Z0,37.5352653,127.1326711,디저트39(강동역점),"05381) 서울특별시 강동구 천호대로 1092 (성내동, 에스케이허브진) 1층 11호(성내동,에스케이허브진)"
28MGB0,37.5330426,127.1322904,미도리카페(midori cafe)_QR,05382) 서울특별시 강동구 천호대로170길 56 (성내동) 1층 102호(성내동)
Y4A609,37.5377155,127.137353,강동짬뽕_QR,05354) 서울특별시 강동구 천중로40길 78 (길동) 1층
8V0LB1,37.5701196,126.999799,광장시장 통통오징어,03195) 서울특별시 종로구 창경궁로 88 (예지동) 67-2호(예지동)
JMOE41,37.57193,126.9998206,원할머니보쌈족발 종로5가점_QR,03129) 서울특별시 종로구 종로31길 22 (연지동) 1층(연지동)
KAXJS3,37.3609874,127.1138009,유이타바,13612) 경기도 성남시 분당구 내정로11번길 7 (정자동) 1층
4DTAIX,37.3845238,127.1221756,카츠소야(서현점)_QR,13591) 경기도 성남시 분당구 분당로53번길 19 (서현동) 1층 106호
ART47D,37.5707427,126.9836089,커피기업(종로타워직영점),03161) 서울특별시 종로구 종로 51 (종로2가)  종로타워 지하2층
4545SD,37.3608462,127.1137983,돌판하나,13612) 경기도 성남시 분당구 내정로7번길 8 (정자동) 1층
HZM0HO,37.3605834,127.1145148,김명자낙지마당(정자점),13612) 경기도 성남시 분당구 불정로87번길 6 (정자동) 지하 1층
O1ILGF,37.3609907,127.113435,신가네 부대찌개,13612) 경기도 성남시 분당구 내정로11번길 11 (정자동) 1층
UWJD6X,37.3606057,127.1139982,달콩,13612) 경기도 성남시 분당구 내정로7번길 5-1 (정자동) 1층
9KDZIC,37.5358673,127.1273067,대삼박이_QR,05384) 서울특별시 강동구 천호옛14길 34 (성내동) 1층 
VDCNNJ,37.5690691,126.9885836,구이와찌개_QR,"03191) 서울 종로구 종로16길 22 관철동, 모암회관 "
IHZRYV,37.529187,126.967886,메가MGC커피(신용산역지하상가점),"04386) 서울특별시 용산구 한강대로 지하 112 , 지하층 429-01호 신용산역(한강로2가) "
PPV2LY,37.5000285,127.0365145,커피기업(강남GFC점),"06236) 서울특별시 강남구 테헤란로 152 (역삼동) ,2층(역삼동, 강남파이낸스센터)"
MZJ063,37.377133,127.1154775,소소떡볶이(분당수내점)_KIOSK,"13597) 경기 성남시 분당구 내정로165번길 50 ,1층110호(수내동,크리스탈빌딩)"
1SIPQH,37.4966923,127.0304224,국빈,06240) 서울특별시 강남구 테헤란로4길 27 (역삼동) 지상2층(역삼동)
U2PBWH,37.497011,127.0298541,우동명가 다카마쓰 강남본점,06232) 서울특별시 강남구 강남대로84길 15 (역삼동)  1층 102-2호
SELF_63P7FU,37.4877397,126.7767837,만나당 김치찜,14617) 경기도 부천시 원미구 신흥로 45 (심곡동) 3층 만나당 김치찜 
F73HD1,37.5256654,126.9672316,용산면옥_QR,"04387) 서울특별시 용산구 서빙고로 17 상가동 1층 63호,64호,65호(한강로3가,용산센트럴파크 해링턴스퀘어)"
BI2UDU,37.4915781,127.0299697,밀양무안돼지국밥,"06627) 서울특별시 서초구 강남대로 321 (서초동, 서초동 대우디오빌프라임) B108호 "
BFJI8F,37.4843459,126.8992851,순백회관 구로디지털단지역점,08378) 서울특별시 구로구 디지털로34길 55 (구로동) 지하 1층 114호 
LA11167,37.4686919,126.8968869,롯데리아(독산점),"08584) 서울시 금천구 시흥대로 391 (독산동, 홈플러스금천점 1층) "
75MX9L,36.9941023,127.1395452,솥뚜껑 삼겹살&해장국_QR,17564) 경기도 안성시 공도읍 서동대로 3892 1층
Z9QEQZ,36.993591,127.1381795,24시전주명품콩나물국밥_QR,17564) 경기도 안성시 공도읍 진사길 3 1층 101호
SELF_1KM9IW,37.3966253,127.1107001,신주옥미(판교점),"13524) 경기도 성남시 분당구 대왕판교로606번길 31 (삼평동) 115,116,117호 신주옥미 판교점"
M9O0PT,37.5673141,126.8275549,웨이,"07788) 서울특별시 강서구 마곡중앙5로 6 (마곡동) 2층 218호(마곡동, 마곡나루역 보타닉푸르지오시티)"
YX9XMP,37.5187788,127.020684,피그닉,"06034) 서울특별시 강남구 압구정로2길 46 (신사동, ---------) 1층"
QU5FSX,37.5289328,126.9668158,커피빈(신용산래미안점),04378) 서울특별시 용산구 한강대로95 커피빈(신용산래미안점) 
JTYC03,37.3704086,126.9450427,매머드익스프레스(금정역점),"15809) 경기도 군포시 공단로 294, 1 층 일부호 "
0X9LGW,37.402122,127.1104451,풀동네(판교점),"13493) 경기도 성남시 분당구 판교역로 240 (삼평동) A동 1층 120호(삼평동,삼환하이펙스A동)"
1FWZAA,37.402122,127.1104451,오늘은샐러드,13493) 경기도 성남시 분당구 판교역로 240 (삼평동) 지하 1층
42JC82,37.5672462,126.8258416,도니랑 김치생삼겹,07788) 서울특별시 강서구 마곡중앙5로 18 (마곡동) 1층
GO2102,37.5636988,126.8253063,삼청당(마곡코엑스점_KIOSK,"07797) 서울 강서구 마곡중앙로 111 ,지하2층 B235호, 236호"
RETD1Q,37.3643932,127.1076958,투쿡(정자본점),13558) 경기도 성남시 분당구 성남대로331번길 3-13 (정자동) 108호
SELF_UOVJCE,37.5680924,126.8254451,소복집_QR,07788) 서울특별시 강서구 마곡서로 158 (마곡동) 1층 116호 소복집
SFNLEA,37.3777866,127.1118045,준 이자카야 라멘 초(덮)밥,13595) 경기도 성남시 분당구 황새울로200번길 9-7 (수내동) 1층
UJ1SKN,37.5657556,126.8256199,침스버거,07797) 서울특별시 강서구 마곡중앙로 143 (마곡동) 본동 지하2층 211호
67K620,37.5290605,126.9667193,테그42(용산역점),04378) 서울특별시 용산구 한강대로 95 지하1층 b144호 
Z15W87,37.3681637,127.1063114,팔선,13558) 경기도 성남시 분당구 느티로 16 (정자동) 201호
S1HZFG,37.4011402,127.1073465,역전국밥(판교점),"13494) 경기도 성남시 분당구 대왕판교로 660 (삼평동) 2층 213호(삼평동,유스페이스1) "
9UJXYY,37.4535172,126.4422107,아모제푸드_T1_AS 서편_KIOSK2,22382) 인천광역시 중구 공항로 272 제1여객터미널 A/S 서편 2층 직원식당 
XWKVW1,37.4535172,126.4422107,아모제푸드_T1_AS 서편_KIOSK1,22382) 인천광역시 중구 공항로 272 제1여객터미널 A/S 서편 2층 직원식당 
PAPA323,35.2114601,129.0601982,파파존스(온천사직점),"47730) 부산광역시 동래구 충렬대로107번길 65 (온천동, 동래 래미안 아이파크) 상가 315동 105호"
WFO5EZ,37.5040477,127.0540082,작은동경_QR,"06196) 서울특별시 강남구 테헤란로70길 25 (대치동, 백합빌) 2층 201호중 2호(대치동,백합빌) "
K84TB4,37.3771266,127.1119423,(주)라온필돈가스에미치다,"13595) 경기 성남시 분당구 백현로101번길 11 수내동, 동현프라자 103호 "
1CIR7E,37.3940611,127.1091857,노바,13530) 경기 성남시 분당구 판교역로 145 타워2동 1층 117호 
SAMMZQ,37.5255541,126.9647616,포케올데이(용산역점),"04388) 서울특별시 용산구 한강대로 54-2, 2층(한강로3가) "
F2KVS9,37.4832748,127.0344755,김밥천국(양재점)_KIOSK,"06749) 서울특별시 서초구 강남대로 221 (양재동)  (양재동) 1층 114호(양재동, 양재역환승주차장)"
R8C141,37.4844444,127.0366875,부대옥 양재역점_QR,"06737) 서울특별시 서초구 남부순환로 2614 (양재동, 한솔로이젠트) 1층 101,102호(양재동,한솔로이젠트)"
GFP8XZ,37.37748,127.1125095,서울미트볼(수내점),13595) 경기도 성남시 분당구 백현로101번길 17 (수내동) 1층 107호
SELF_761VWM,37.5657556,126.8256199,브레디몽 (마곡코엑스점),07797) 서울특별시 강서구 마곡중앙로 143 (마곡동) 본동 지하 2층 232호 브레디몽
EOCEL6,37.5676857,126.8259795,중식당 청가_QR,"07788) 서울특별시 강서구 마곡서로 152 마곡동, 두산더랜드타워 B동 2층 203호 "
W15XPD,37.4892082,127.0083164,비노바인,06656) 서울특별시 서초구 반포대로23길 6 (서초동) 지하 1층
H6M8T5,37.5288489,126.9666286,보울레시피(용산점)_KIOSK,04378) 서울 용산구 한강대로 95 래미안용산 더 센트럴 지하2층 B240호 
O44VD1,37.4867831,127.0311273,샤브온당,06730) 서울특별시 서초구 남부순환로347길 54 (서초동) 1층
5O8W61,34.8772579,128.7056406,한화오션(MO2매점),53300) 경상남도 거제시 거제대로 3370 한화오션
84Q3WW,34.8772579,128.7056406,한화오션(PDC2매점),53300) 경상남도 거제시 거제대로 3370 한화오션
CDRTZU,34.8772579,128.7056406,한화오션(PDC1매점),53300) 경상남도 거제시 거제대로 3370 한화오션
SELF_EX5T3T,37.5378885,127.1335901,앤서니카페_QR,"05338) 서울특별시 강동구 진황도로31길 6 (천호동, 우정에쉐르) 101동102호 앤서니카페 "
ALBPY6,37.4898373,127.008013,피에프창(서초점),06656) 서울특별시 서초구 서초대로40길 41 (서초동) 1층
8LIEPK,37.5647746,126.825252,진진수라(코엑스마곡점),07797) 서울특별시 강서구 마곡중앙로 143 (마곡동) 지하 2층
MGUVFX,37.4852014,127.035879,153구포국수(양재역점)_QR,"06267) 서울특별시 강남구 남부순환로 2615 (도곡동, 극동스타클래스) 134호"
Q7EDO2,37.4852741,127.037348,컴포즈커피(양재도곡점),06268) 서울특별시 강남구 남부순환로 2629 1층 
48E3RB,37.5676857,126.8259795,에머이(마곡나루점),07788) 서울특별시 강서구 마곡서로 152 (마곡동) B동 108~109호
Q1GDGK,37.5647746,126.825252,단정(코엑스마곡점)_KIOSK,07797) 서울시 강서구 마곡중앙로143 지하2층219호
XZFE16,37.5673178,126.8270022,오봉집(마곡나루점),07788) 서울특별시 강서구 마곡중앙5로 6 (마곡동) 1층 
2RCF01,37.383026,127.1220749,원그릭_QR,"13591) 경기도 성남시 분당구 황새울로312번길 20 (서현동) 1층(서현동, 분당태성빌딩)"
6079JU,37.5372518,127.131426,금돈김치마을_QR,"05340) 서울특별시 강동구 천호대로 1077 (천호동, 래미안강동팰리스) B1층 111호 "
9C5MF6,37.4012686,127.1086539,리치앤,"13494) 경기도 성남시 분당구 판교역로 231 (삼평동) ,1층 122호"
5OX4GP,37.4864238,127.03213,갓포쿠모,06730) 서울특별시 서초구 강남대로41길 15-19 (서초동) 2층
C0X9CO,37.4864238,127.03213,진교원,06730) 서울특별시 서초구 강남대로41길 15-19 (서초동) 지하 1층
MT8I53,37.4864238,127.03213,아리가,06730) 서울특별시 서초구 강남대로41길 15-19 (서초동) 2층
Q7JJFP,37.4864238,127.03213,팔향,06730) 서울특별시 서초구 강남대로41길 15-19 (서초동)  지하1층
S7OD5Z,37.4864238,127.03213,브리즈,06730) 서울특별시 서초구 강남대로41길 15-19 (서초동) 1층 
OPTPF6,37.5820865,127.0035368,유가네닭갈비(대학로점),03086) 서울특별시 종로구 동숭동 1-76 1층 
MB6ACQ,37.5689579,126.9873653,이복희해장(종로직영점),03190) 서울특별시 종로구 삼일대로 385 (관철동) 1층
6BKILF,37.4875642,127.0087608,한국밥_QR,06657) 서울특별시 서초구 서초대로40길 92 1층
82KSK7,37.4889463,127.0072434,신박사콩사랑_QR,06656) 서울특별시 서초구 반포대로23길 30 (서초동) 1층
HR6AGO,37.4889123,127.0070667,벨레나_QR,06656) 서울특별시 서초구 반포대로23길 32 (서초동) 2층
HRXYXD,37.4877305,127.0087184,아따맵소_QR,06657) 서울특별시 서초구 서초대로40길 88 (서초동) 1층
K2C5EC,37.4943834,127.0198385,압구정샌드위치(서초직영점),06631) 서울특별시 서초구 서초중앙로22길 108 (서초동) 1층 101호
ME8C3Z,37.4882366,127.0087222,명인만두(서초점)_QR,06657) 서울특별시 서초구 서초대로40길 77 (서초동) 1층
MF0KM1,37.4886225,127.0124697,미스타교자(서초점),06650) 서울특별시 서초구 서초대로48길 101 (서초동) 1층
XKWGCK,37.4908056,127.0097902,김밥천국(서초점)_QR,06647) 서울특별시 서초구 반포대로28길 21-4 (서초동) 1층
ZQG6GR,37.4011402,127.1073465,화포식당(판교점),13494) 경기도 성남시 분당구 대왕판교로 660 (삼평동) 2층 240호 
PS552Q,37.4074483,127.0893972,야금야금,13453) 경기도 성남시 수정구 금토로80번길 51 (금토동) 1층
9IVFW9,37.4011402,127.1073465,양문(판교점),"13494) 경기도 성남시 분당구 대왕판교로 660 (삼평동) 2층 235호(삼평동, 유스페이스1)"
Z4HU0Q,37.4976604,127.0295391,멍키호두(강남점)_KIOSK,06232) 서울 강남구 테헤란로4길 6 지하1층 B114호(강남역 센트럴 푸르지오 시티)
VHGVFH,37.5294522,126.9673099,던킨도너츠(용산센트럴점),"04378) 서울시 용산구 한강대로 95,래미안용산 B동 111호(한강로2가) 던킨도너츠 "
BS404U,37.3943019,127.1122006,푸에르코(판교점),13529) 경기도 성남시 분당구 분당내곡로 117 (백현동) 201호
Q4394E,37.5372518,127.131426,보돌미역(강동역점)_QR,"05340) 서울특별시 강동구 천호대로 1077 (천호동, 래미안강동팰리스) B1층 105호 "
Y5UC5T,37.5381361,127.1355103,미식미객_QR,05338) 서울특별시 강동구 성안로 167 (천호동) 2층 
1UEW88,37.4893085,127.0332634,왕산골_QR,06258) 서울특별시 강남구 강남대로58길 14 (도곡동) 2층(도곡동)
7HO652,37.4855843,127.0372643,제레미버거_QR,06268) 서울특별시 강남구 남부순환로361길 7 (도곡동) 1층
8VQGA9,37.4810597,127.0414831,양재오제섞어_QR,06740) 서울특별시 서초구 바우뫼로41길 8 (양재동) 1층
AHYVQ1,37.4862591,127.0352702,양재역 명품 생대구탕,06266) 서울특별시 강남구 강남대로44길 21 (도곡동) 1층
BFVBSR,37.4861703,127.0325156,이올로화덕피자_QR,"06735) 서울특별시 서초구 강남대로39길 5 (서초동, 서초동두산위브) 106호 (서초동,두산위브)"
DEGIXZ,37.4814053,127.0378907,문어세상해천탕,06744) 서울특별시 서초구 강남대로 188 (양재동) 2층
N0CD1U,37.4843046,127.0379825,미소야_QR,06738) 서울특별시 서초구 남부순환로356길 15 (양재동) 1층
QDMT3Q,37.4804097,127.0405215,양재카츠,06745) 서울특별시 서초구 논현로31길 56 (양재동) 1층
YP0GPK,37.4852764,127.0343855,석화촌_QR,06267) 서울특별시 강남구 강남대로 240 (도곡동) 지하 1층
4O8EIE,37.4020632,127.1061136,조재벌식당,13494) 경기도 성남시 분당구 대왕판교로 670 (삼평동) 2층 224호
JG2K7X,37.3973643,127.1125054,양재정육식당(판교점),13524) 경기도 성남시 분당구 분당내곡로 151 (삼평동) 1층 
ELJCWN,37.3974278,127.1120459,일월의 제면소(판교점),13524) 경기도 성남시 분당구 판교역로192번길 14-2 (삼평동) 골드타워 117
SELF_T1Y7F2,37.4839043,127.0381482,남원골추어탕_QR,06738) 서울특별시 서초구 남부순환로356길 23 (양재동) 1층 남원골추어탕
YKLQH5,37.2794732,126.8195917,구룡관 중화요리,18242) 경기 화성시 노들길 8 가온프라자 106호 
U3ZNU1,37.3130487,127.0790145,라쿵푸마라탕(수지점),16849) 경기도 용인시 수지구 수지로 119 (성복동) 2층 214호
IR3MXZ,37.5265571,126.963413,에비스야 우동(용산점)_QR,04379) 서울특별시 용산구 한강대로15길 26-8 (한강로3가) 1층(한강로3가)
0U02ZC,37.4159608,127.2577509,백년짬뽕(광주송정동지점)_QR,12743) 경기도 광주시 광주대로105번길 19-1 (송정동) 1층
9JSKWX,37.4202811,127.2558323,두레통닭(광주송정점),12739) 경기도 광주시 송정2길 27-5 (송정동) 1층
KWI3FJ,37.418,127.2562019,신참떡볶이(광주송정점)_QR,12745) 경기도 광주시 중앙로203번길 6 (송정동) 1층
K96LN5,37.3404442,127.1093995,매머드익스프레스(오리역점),"13637) 경기도 성남시 분당구 성남대로 52, 105호"
QNG14A,37.3745405,126.9492134,고향엄마손생바지락칼국수,14118) 경기도 안양시 동안구 엘에스로116번길 91 (호계동) C113호
N7MED7,37.56473,127.0062181,울릉도,04561) 서울특별시 중구 을지로44길 32 (광희동1가) 1층 (광희동1가)
3LK1UB,37.4869669,126.895301,우림더이룸푸드,08377) 서울특별시 구로구 디지털로33길 28 (구로동)  (구로동) 지하 1층
2BLTNG,37.3862475,127.124585,파리바게뜨(분당서현점),"13591) 경기도 성남시 분당구 서현로210번길 14 (서현동) 112, 114호(서현동, 유성트윈프라자 2차)"
S6ES3Z,37.4848251,127.0381049,곰작골나주곰탕(양재점),06738) 서울특별시 서초구 남부순환로 2626 (양재동) 1층
O58BG7,37.4012686,127.1086539,리치앤,13494) 경기도 성남시 분당구 판교역로 231 (삼평동) 1층 122호
NWM5VH,37.527367,126.9688373,메가MGC커피(용산아스테리움점),"04386) 서울특별시 용산구 한강대로30길 25,  지하1층 B117호"
K0YILF,37.5346036,127.1330225,샐러드아월스어클락_QR,"05381) 서울특별시 강동구 천호대로170길 16 (성내동) 1층 102호(성내동,영재빌딩) "
LCK3GL,37.5276636,126.9687959,공차(용산아스테리움점),04386) 서울특별시 용산구 한강로2가 419
LTCCTH,36.1297839,128.416494,소도리,39421) 경상북도 구미시 옥계2공단로 272 (구포동)  (구포동)  1층
R92O2W,37.4040238,127.1000896,카페 두레브,13486) 경기도 성남시 분당구 판교로255번길 9-22 (삼평동) 1층 141호
DY7O8Y,37.5399795,127.1288619,연희네돈까스 제면소,05334) 서울특별시 강동구 진황도로 9-1 (천호동) 1층(천호동)
NBJCXB,37.3728339,126.9488531,샐러디(금정호계점),14118) 경기도 안양시 동안구 엘에스로 122 1층 110호 
06YOOZ,37.5287914,126.9686733,오제제(신용산점),04386) 서울특별시 용산구 한강대로 100 (한강로2가) 지하 1층
0RYL13,37.527367,126.9688373,슈퍼커피(용산점),"04386) 서울특별시 용산구 한강대로30길 25 (한강로2가, 아스테리움 용산) 지하 1층"
1ORJR7,37.5287914,126.9686733,무미유미,04386) 서울특별시 용산구 한강대로 100 (한강로2가) 지하 1층
2R7SGD,37.5242699,126.9627713,삼가식당_QR,04379) 서울특별시 용산구 한강대로 31 (한강로3가) 지하1층(한강로3가)
2VNYS1,37.5314476,126.9704575,이디야(삼각지점),04382) 서울특별시 용산구 한강대로 138
3FIQ2R,37.5273239,126.9652715,매머드익스프레스(용산푸르지오써밋),"04378) 서울시 용산구 한강대로 69, 상가동 1층 104-2호 "
491R4H,37.5294826,126.9672632,샐러디(신용산점),"04378) 서울특별시 용산구 한강대로 95 지하1층 B124호(한강로2가, 래미안용산 더 센트럴) "
4EX7LR,37.5287967,126.9671806,맘스터치랩(테라스용산점),04378) 서울 용산구 한강대로 95  래미안용산 더 센트럴 1층 113호
4LUAE2,37.527921,126.9678065,달마이어커피,04386) 서울특별시 용산구 한강대로 92 (한강로2가)  B1
4VHGU5,37.527921,126.9678065,고씨네플러스(LS용산타워점),04386) 서울특별시 용산구 한강대로 92 (한강로2가) LS용산타워 지하
5PCSKW,37.5237855,126.9645858,매머드익스프레스(용산유플러스점),"04389) 서울특별시 용산구 한강대로14가길 24, 1층 "
5Z9NYX,37.527367,126.9688373,커피나인_QR,"04386) 서울특별시 용산구 한강대로30길 25 (한강로2가, 아스테리움 용산) 지하 1층"
6FIXAB,37.530355,126.9703793,식껍(용산점),04382) 서울특별시 용산구 한강대로40길 19 (한강로2가) 1층
89M7T2,37.527367,126.9688373,컴포즈커피(용산아스테리움점),"04386) 서울특별시 용산구 한강대로30길 25 비동 지층 114호(한강로2가, 아스테리움 용산) "
8FYIEW,37.5287914,126.9686733,진작다이닝(용산점),04386) 서울특별시 용산구 한강대로 100 (한강로2가) 지하 1층
8RZCZO,37.5298558,126.9645457,KFC(용산아이파크몰점),"04388) 서울특별시 용산구 한강대로23길 55 아이파크몰 6층 7,8호 "
8ZAPRZ,37.527367,126.9688373,룽푸청마라탕,"04386) 서울특별시 용산구 한강대로30길 25 (한강로2가, 아스테리움 용산) 지하 1층"
9LJJW7,37.5257845,126.9650436,슈퍼스타떡볶이,04388) 서울특별시 용산구 한강대로 58 (한강로3가) 1층(한강로3가)
BKR_00000002,37.5278825,126.9676321,버거킹(국제점),04386) 서울특별시 용산구 한강대로 92
BKR_00000188,37.5288539,126.9640447,버거킹(용산이마트점),04377) 서울특별시 용산구 한강대로 23길 55 
BTPBND,37.5332508,126.9708888,써브웨이(용산역점),"04378) 서울특별시 용산구 한강대로 69 (한강로2가, 용산푸르지오써밋) 1층 "
BVTDT9,37.5301443,126.9678183,매머드익스프레스(신용산점),"04376) 서울특별시 용산구 새창로 217, 1층 제121, 122, 123, 127, 131호(한강로2가, 용산토투밸리) 매머드익스프레스 "
CBS9J4,37.52704,126.964892,수수꽃다리_QR,"04378) 서울특별시 용산구 한강대로 69 (한강로2가, 용산푸르지오써밋)  상가동지하1층B105-2"
CCTV47,37.5249247,126.9646493,파이드파이퍼_QR,04389) 서울특별시 용산구 한강대로14길 8 1층 101호(한강로3가)
CU45424,37.5275201,126.9689484,CU(신용산아스테리움점),"04386) 서울특별시 용산구 한강대로30길 25, 지1층 비101호(한강로2가, 아스테리움 용산) "
DHSO43,37.5298392,126.964861,던킨(용산이마트점),"04377) 서울특별시 용산구 한강대로23길 55, 지하2층 지하 2층 던킨 용산이마트점 "
FBJNGT,37.527367,126.9688373,포베이(신용산점),"04386) 서울특별시 용산구 한강대로30길 25 (한강로2가, 아스테리움 용산) 지하 1층"
FIB5NI,37.5303666,126.9716134,쏭타이치앙마이(신용산본점)_QR,04382) 서울특별시 용산구 한강대로40길 39-5 (한강로2가) 1층
G4A6PH,37.527921,126.9678065,매반생면_QR,04386) 서울특별시 용산구 한강대로 92 (한강로2가)  LS타워 지하1층
GS25_VI204,37.5279282,126.9677772,GS25(용산LS타워점),04386) 서울특별시 용산구 한강로2가 191번지 LS용산타워지하아케이드 지하1층 
GSSM_13236,37.5258562,126.9676442,GS더프레시(용산해링턴점),"7019207001) 04387 서울 용산구 서빙고로 17, 용산해링턴스퀘어판매시설C동111호115호(한강로3가 63-70) "
HLAH8H,37.5274299,126.9688416,뚜레쥬르(신용산역점),"04386) 서울특별시 용산구 한강대로30길 25 (한강로2가,아스테리움 용산) B1 131 "
I1K37N,37.5277056,126.9688885,매머드익스프레스(용산아스테리움점),"04386) 서울특별시 용산구 한강대로30길 25, 지하1층 B120호 "
IQ6MY5,37.527367,126.9688373,루체에비뉴커피_QR,"04386) 서울특별시 용산구 한강대로30길 25 (한강로2가, 아스테리움 용산) 지하 1층"
IZK7VZ,37.5264245,126.9657196,매머드익스프레스(용산센트럴파크점),"04387) 서울시 용산구 한강대로 66, 1층 112호 "
J46E5P,37.5313685,126.9703438,이여곰탕(용산점),04382) 서울특별시 용산구 한강대로 136 (한강로2가) 1층
JMIWBV,37.5262912,126.9665216,정선참숯골_QR,"04387) 서울특별시 용산구 서빙고로 17 몰동 B115,B116호(한강로3가)"
JSKO7I,37.527367,126.9688373,봉추찜닭(신용산점),"04386) 서울특별시 용산구 한강대로30길 25 (한강로2가, 아스테리움 용산) 지하 1층"
JYILRY,37.5309764,126.9699813,메가MGC커피(신용산역점),04382) 서울특별시 용산구 한강대로 130-3
KDNYZ6,37.527367,126.9688373,커피스모키_QR,"04386) 서울특별시 용산구 한강대로30길 25 (한강로2가, 아스테리움 용산) 지하 1층"
L2NXNN,37.5304878,126.9680197,중화가정(용산역점),04376) 서울특별시 용산구 새창로 213 (한강로2가) 2층
LA12977,37.5288539,126.9640447,롯데리아(용산역사점),04377) 서울시 용산구 한강대로 23길 55 5층 408호 롯데리아 
M97ID7,37.527367,126.9688373,하나야,"04386) 서울특별시 용산구 한강대로30길 25 (한강로2가, 아스테리움 용산) 지하 1층"
MA4WZG,37.5288539,126.9640447,공차(이마트용산점),04377) 서울시 용산구 한강대로23길 55 이마트 지하2층 
MSXXOF,37.5262912,126.9665216,미도반_QR,"04387) 서울특별시 용산구 서빙고로 17 1층 118,119,120(한강로3가,용산센트럴파크 해링턴스퀘어 판매시설)"
MUZUZA,37.5287967,126.9671806,슬로우캘리(신용산점),04378) 서울특별시 용산구 한강대로 95. 지하2층 B238호 (한강로2가  래미안 용산 더 센트럴) 
MWMIE5,37.5297133,126.9647528,커피빈(용산아이파크몰점),"04377) 서울특별시 용산구 한강대로 23길 55, I&#39;PARK MALL 테이스트파크 7층 커피빈(용산아이파크몰점) "
MXCLLH,37.5262912,126.9665216,오한수 우육면가_QR,"04387) 서울특별시 용산구 서빙고로 17 1층 61호(한강로3가,용산센트럴파크 해링턴스퀘어)"
NBHZ80,37.5288489,126.9666286,포나_QR,"04378) 서울특별시 용산구 한강대로 95 (한강로2가, 래미안용산 더 센트럴)  래미안용산지하1층B109호"
OD8G5Y,37.527367,126.9688373,후라토식당(용산점),"04386) 서울특별시 용산구 한강대로30길 25 (한강로2가, 아스테리움 용산) 지하 1층"
OK8GC8,37.5288539,126.9640447,할리스커피(용산아이파크몰점),"04377) 서울특별시 용산구 한강대로23길 55 (한강로3가, 용산역) 4층 할리스커피(용산아이파크몰점) "
PARIS_18477,37.5350925,126.974303,파리바게뜨(신용산LS),140702) 서울시 용산구 한강로 2가 191 국제빌딩 지하1층 10호 
PHVW7I,37.5258032,126.9651265,용산수림식당_QR,04388) 서울특별시 용산구 한강대로 58-1 (한강로3가) 2층(한강로3가)
QB60VO,37.5297133,126.9647528,투썸플레이스(용산아이파크몰점),04377) 서울특별시 용산구 한강대로23길 55 (한강로3가) 용산아이파크몰 6층 
R0C4WP,37.527921,126.9678065,설담재(LS용산타워점)_QR,04386) 서울특별시 용산구 한강대로 92 (한강로2가)  LS용산타워지하1층
RIIPHT,37.5258032,126.9651265,직화장인(용산점)_QR,04388) 서울특별시 용산구 한강대로 58-1 (한강로3가) 1층(한강로3가)
RTAF42,37.5262912,126.9665216,신성식당_QR,"04387) 서울특별시 용산구 서빙고로 17 1층 상가51,53,54호(한강로3가,해링턴스퀘어)"
RTS27T,37.5254115,126.9646792,이디야(용산중앙점),"04388) 서울 용산구 한강대로 52-1 1,2층 "
SB_3487,37.5287967,126.9671806,스타벅스(신용산역점),04378) 서울특별시 용산구 한강로2가 342 래미안용산 
SB_4002,37.5265718,126.9673942,스타벅스(용산해링턴스퀘어점),04387) 서울특별시 용산구 한강로3가 63-70(용산해링턴스퀘어 상가) 
SB_4626,37.529557,126.9641567,스타벅스(용산이마트점),04377) 서울특별시 용산구 한강대로23길 55 (한강로3가) 지하 2층 
SB_9307,37.529557,126.9641567,스타벅스(용산아이파크몰점),"04377) 서울특별시 용산구 한강로3가 40-999 현대아이파크몰(용산역민자역사), 6층 "
SELF_OG4NGH,37.5288369,126.9686467,고청담(용산점),07335) 서울특별시 용산구 한강대로 100 지하 1층 B104-2호
SE_55612,37.5258562,126.9676442,세븐일레븐(용산해링턴스퀘어점),"140013) 서울특별시 용산구 서빙고로 17 상가동 22,23호(한강로3가, 용산센트럴파크 해링턴스퀘어) "
SQ37IW,37.5243493,126.9651218,다움,04389) 서울특별시 용산구 한강대로14가길 8 (한강로3가) 1층(한강로3가)
TVGKP4,37.527367,126.9688373,에이셉커피,"04386) 서울특별시 용산구 한강대로30길 25 (한강로2가, 아스테리움 용산) 지하 1층"
UVL11D,37.5297133,126.9647528,쉐이크쉑(용산점),04377) 서울 용산구 한강대로23길 55 아이파크몰 1층 
WN5VEZ,37.527367,126.9688373,마이쥬스(신용산점)_QR,"04386) 서울특별시 용산구 한강대로30길 25 (한강로2가, 아스테리움 용산) 지하 1층"
WPKEGZ,37.5287914,126.9686733,왓어샐러드_QR,04386) 서울특별시 용산구 한강대로 100 (한강로2가) 지하 1층
XL09AR,37.530404,126.9700742,육회관블랙(주식회사 홍컴퍼니),04382) 서울특별시 용산구 한강대로40길 13 (한강로2가) 3층
XQKBEV,37.5253478,126.9628206,주식회사 더블유에이비(왓어브레드)_QR,"04379) 서울특별시 용산구 한강대로15길 19-19 (한강로3가) 1층(한강로3가,해운빌딩)"
YV609H,37.5295187,126.9651337,배스킨라빈스(용산이마트점),04377) 서울특별시 용산구 한강대로 23길 55 배스킨라빈스(용산이마트점) 
Z3TXBI,37.5269056,126.9665663,메가MGC커피(용산해링턴스퀘어점),"04387) 서울특별시 용산구 서빙고로 17 , 몰동 1층 1013호(한강로3가) "
Y5M313,37.5026771,127.0217786,서울집,"06609) 서울특별시 서초구 서운로 220 (서초동) 서초동, 대지스포츠플라자 1층 "
SELF_84OASV,37.53676,127.1335888,순남시래기(강동역점)_QR,"05339) 서울특별시 강동구 천호대로 1089 (천호동, 강동역 신동아 파밀리에) 제지1층 제비17호"
SELF_MB3PM0,35.8348548,128.6809482,스테디커피,42250) 대구광역시 수성구 알파시티1로35길 1 (대흥동) 1층 스테디커피 
GI2S3G,37.3382539,127.1013616,아리가또맘마,"16827) 경기도 용인시 수지구 신수로 767 (동천동)  A동 224호(동천동, 분당수지U-TOWER) "
MCGR1D,37.5699435,126.9866534,호앙비엣(관철동점),"03190) 서울특별시 종로구 종로 82-1 (종로2가) 1층(종로2가,부봉빌딩)"
ALFMDC,37.5467042,126.8756673,써브웨이(염창역점),07968) 서울특별시 양천구 공항대로 638 지하 1층 B106호 B107호
W2OL5M,37.4020632,127.1061136,조재벌식당,"13494) 경기도 성남시 분당구 대왕판교로 670 (삼평동) 2층 224호(삼평동, 유스페이스2)"
BE23VE,37.5154444,127.0188181,멘쇼쿠,06526) 서울특별시 서초구 강남대로99길 10 (잠원동) 2F
BIVWYU,37.360188,127.1142843,파스쿠찌(분당KT계원점),13612) 경기도 성남시 분당구 정자동 139-7 파스쿠찌(분당KT계원점) 
IQGH6V,37.3615152,127.1142743,이디야(분당신기사거리점),13612) 경기도 성남시 분당구 불정로87번길 17
Y1UKE0,37.4011402,127.1073465,양문(판교점),13494) 경기도 성남시 분당구 대왕판교로 660 (삼평동) 2층
Y5GYKN,37.3943019,127.1122006,오크베리(판교역점),13529) 경기도 성남시 분당구 분당내곡로 117 (백현동) 1층 101-3호
BRV225,37.5756905,126.8386649,유미카츠(마곡점)_QR,"07631) 서울특별시 강서구 공항대로 200 (마곡동) 1층 117, 118호 "
00KMP0,37.3728818,126.9488647,동남집,14118) 경기도 안양시 동안구 엘에스로 122 (호계동) 102호
0N0VJB,37.3728818,126.9488647,포밀리베트남 쌀국수전문점_QR,14118) 경기도 안양시 동안구 엘에스로 122 (호계동) 114호
5IFVLQ,37.3740595,126.9487876,채우다김밥,14118) 경기도 안양시 동안구 엘에스로116번길 25-32 (호계동) 103호
69NEWE,37.3750232,126.9476604,쿡킹포유_QR,14118) 경기도 안양시 동안구 엘에스로116번길 118 (호계동) 1층 101-107호
7TRVMS,37.3736249,126.9477505,유미카츠(금정역SKV1점),14118) 경기도 안양시 동안구 엘에스로 136 (호계동) 119호
7V1E03,37.3709438,126.9483212,고가네 순대국,14119) 경기도 안양시 동안구 엘에스로91번길 16-39 (호계동) 근생 111호
91BFCJ,37.3740595,126.9487876,오늘밥상_QR,14118) 경기도 안양시 동안구 엘에스로116번길 25-32 (호계동) 1층 106-112호
B8C6Y1,37.3736249,126.9477505,샐러리아(금정역점),14118) 경기도 안양시 동안구 엘에스로 136 (호계동) 1층 115호
IQTJWN,37.3728818,126.9488647,옥된장(안양호계점),14118) 경기도 안양시 동안구 엘에스로 122 (호계동) 105호
MMYO3Q,37.3709438,126.9483212,킹콩부대찌개(안양IT밸리점),14119) 경기도 안양시 동안구 엘에스로91번길 16-39 (호계동) 근생 114호
N5HCXA,37.3728818,126.9488647,청담,14118) 경기도 안양시 동안구 엘에스로 122 (호계동) 108호
SRFUSY,37.3740595,126.9487876,리옌차이(호계점),14118) 경기도 안양시 동안구 엘에스로116번길 25-32 (호계동) 135호
UVJ9W9,37.3728818,126.9488647,뚠뚠이김밥(호계데시앙점),14118) 경기도 안양시 동안구 엘에스로 122 (호계동) 108호
W2T55U,37.3742621,126.9469272,SK이룸푸드_QR,"14118) 경기도 안양시 동안구 엘에스로 142 (호계동) 2층 C202, C203호"
WY236O,37.3722453,126.9494353,수담푸드_QR,14118) 경기도 안양시 동안구 엘에스로 112 (호계동) 110호
ZDY45X,37.3728818,126.9488647,이비가짬뽕(호계점),14118) 경기도 안양시 동안구 엘에스로 122 (호계동) 205호
CHUO4G,37.3709144,126.9481821,러블리선_KIOSK,"14119) 경기 안양시 동안구 엘에스로91번길 16-39 ,1층근생106호(호계동,안양,IT밸리 "
DWIL1Y,37.368979,126.9528459,메가MGC커피(호계지식산업센터점),"#REF!) 경기도 안양시 동안구 엘에스로 122, 지상1층 128호 (호계동, 호계데시앙플렉스) "
QDU8RF,37.368979,126.9528459,이디야(안양SKV1점),"14118) 경기 안양시 동안구 엘에스로116번길 25-32 153호(호계동, 안양 SK V1 center) "
TO6ERI,37.3742621,126.9469272,버거앤타코(금정역점),14118) 경기 안양시 동안구 엘에스로 142 1층 C115호
6G7BTT,37.3742621,126.9469272,컴포즈커피(안양금정SKV1점),"14118) 경기도 안양시 동안구 엘에스로 142 지상1층 C119호(호계동, 호계 금정역 SK V1 center) "
B2RDEC,37.3730902,126.9486275,매머드익스프레스(호계데시앙플렉스점),"14118) 경기 안양시 동안구 엘에스로 122 1층 106호 (호계동, 호계 데시앙플렉스) "
MZNBXH,37.3727034,126.9446859,공차(AK금정점),"15809) 경기도 군포시 엘에스로 143 2층 2010호 일부(금정동, 힐스테이트 금정역) "
RQMEYS,37.3702288,126.9517892,매머드익스프레스(금정2차SKV1점),"14118) 경기도 안양시 동안구 엘에스로 136, 1층 122호 "
5XD8FY,37.3718806,126.9449166,써브웨이(군포AK플라자금정점),"15809) 경기도 군포시 엘에스로 143 2층 2010호 일부호 (금정동, 힐스테이트 금정역) "
3PHD0S,37.3839042,127.1213591,"오늘은,뷔페",13591) 경기도 성남시 분당구 분당로53번길 9 (서현동) 2층 
XB2EH2,37.3973643,127.1125054,양재식당(판교점),"13524) 경기도 성남시 분당구 분당내곡로 151 (삼평동)  삼평동, 1층 "
HA8GCC,37.4037706,127.0997462,델리스_QR,"13486) 경기도 성남시 분당구 판교로255번길 9-22 (삼평동) 2층 220호(삼평동, 판교 우림 W-CITY)"
YOI1NK,37.495616,127.0270887,커피나인(강남역),"06621) 서울특별시 서초구 서초대로74길 23 (서초동, 서초타운트라팰리스) 108호"
2PMTX2,37.4802934,126.8898088,월래순교자관,08387) 서울특별시 구로구 디지털로19길 13 (가리봉동) 1층
PWTZ3M,37.4861404,127.0358263,커피플랜트,"06267) 서울특별시 강남구 강남대로44길 24 (도곡동, 도곡그린빌) 1층 "
IVUUMD,37.3724115,126.9471742,엘아이지홈앤밀(안양타워점)_QR,14119) 경기도 안양시 동안구 엘에스로 127 (호계동) 1층
29WTNO,37.4011402,127.1073465,제주 하르방 숯불구이,13494) 경기도 성남시 분당구 대왕판교로 660 (삼평동) 2층
Y8W8B9,37.3622851,127.1052382,설램,13560) 경기도 성남시 분당구 정자일로 135 (정자동) 디동 1층 106호
DNU29E,37.3801791,127.1162752,정백선순대(분당수내),13595) 경기도 성남시 분당구 황새울로258번길 10-7 (수내동) 1층 101호
NS0O7M,37.572303,126.8069946,카페 컵피 개화산역점,07601) 서울특별시 강서구 양천로 28 (방화동) 별관동1층 135호 
UPXDIA,37.3973219,127.1135683,콘타이(아브뉴프랑판교점),"13525) 경기도 성남시 분당구 동판교로177번길 25 (삼평동, 판교 호반 써밋 플레이스) 2층 222호"
OH7R6W,37.378315,127.1154963,따띠삼겹(분당휴맥스점)_QR,13595) 경기도 성남시 분당구 황새울로 216 (수내동) 휴맥스빌리지 B1층
Q5UM3E,37.3784616,127.112815,썬푸드_QR,13595) 경기도 성남시 분당구 황새울로 216 (수내동) 지하1층 5호실
DMJPAU,37.3680018,127.1055226,옥된장(정자점),"13557) 경기도 성남시 분당구 정자일로 197 (정자동) 111,129호(정자동)"
KGH3D9,37.5294826,126.9672632,임도령 부대찌개,"04378) 서울특별시 용산구 한강대로 95 (한강로2가, 래미안용산 더 센트럴) 지하2층 B202호(한강로2가,래미안용산)"
ORH9M3,37.5276163,126.9675648,오시반상_QR,"04386) 서울특별시 용산구 한강대로 92 (한강로2가) (한강로2가, LS용산타워 지하 아케이드)"
B6K347,35.1802671,128.9541835,공항족발,46720) 부산광역시 강서구 공항앞길 12 (대저2동) 1층 일부
GBUJUP,37.3925074,127.1104303,유강순대국_QR,13529) 경기도 성남시 분당구 판교역로 136 (백현동) 지하 1층
WPDVUV,37.508613,127.0657534,매머드익스프레스(삼성역점)_KIOSK,"06174) 서울시 강남구 테헤란로108길 12, 1층"
XGH037,37.5029087,127.0377564,베어스타코(강남점),06140) 서울특별시 강남구 테헤란로27길 22 (역삼동) 1층
82WKMU,37.4962748,127.0301733,닭장수김밥(강남직영점)_QR,06241) 서울 강남구 테헤란로4길 32 1층 104호(역삼동)
UTRXMW,37.4961582,127.0306768,앵그리누들,06240) 서울특별시 강남구 테헤란로4길 35 (역삼동) 1층
61MQ5T,37.4767391,126.8858264,카페 앤 콩(2호점),"08513) 서울특별시 금천구 벚꽃로 244 (가산동) 1층 107호(가산동, 벽산디지털밸리5차)"
6E0W83,37.5243053,126.9248321,브루클린더버거조인트(여의도점),07325) 서울특별시 영등포구 국제금융로2길 24 (여의도동) 1층
EDPPML,37.5753662,126.9733214,온택 메트로_QR,"03170) 서울특별시 종로구 사직로 130 (적선동) 지하1층 63호(적선동,적선현대빌딩)"
EN3M19,37.5083665,127.0667532,더치앤빈(삼성본점),06175) 서울특별시 강남구 테헤란로114길 20 (대치동) 1층
TNBE3V,37.508448,127.0649099,목삼정,06174) 서울특별시 강남구 테헤란로104길 10 (대치동) 1~2층
ZYSPDI,37.5075243,127.0644558,홍영재장수청국장_QR,06174) 서울특별시 강남구 영동대로 424 (대치동) 1층
1ZYCS4,37.4813327,126.8979978,홍매,08392) 서울특별시 구로구 디지털로32가길 47 (구로동)  구로동 2층 
9VW90K,37.5121181,127.0199256,브레드사우루스,06530) 서울특별시 서초구 강남대로91길 12 (잠원동) 지하1층
LFTFX1,37.5101012,127.02024,코코나야,06535) 서울특별시 서초구 강남대로 545-21 (반포동) 1층
QN2T2M,37.5122525,127.0194079,펠리스산쵸,06530) 서울특별시 서초구 강남대로93길 13-10 (잠원동) 1층
VDZHIF,37.5128644,127.0183775,코스탄테 커피,06530) 서울특별시 서초구 신반포로47길 56 (잠원동) 1층
HMA7LT,37.659422,126.770358,맥도날드(정발산점),0     ) 경기 고양시 일산동구 중앙로1275번길 38-5 맥도날드(정발산) 
J5ZIKR,37.5676575,126.8256375,써브웨이(마곡나루역),07788) 서울특별시 강서구 마곡서로 152 (마곡동) 1층 
LS_110518,37.660346,126.7721146,롯데슈퍼((백)일산점),10401) 경기도 고양시 일산동구 중앙로 1283 롯데백화점 일산점 지하2층 
MVNNLU,37.6604857,126.7720968,크리스피크림도넛(롯데일산점),410837) 경기도 고양시 일산동구 중앙로 1283 롯데백화점일산점
OOO4W1,37.5613397,126.9730201,쿠차라(서소문퍼시픽타워점),04513) 서울 중구 세종대로9길 41 지하 1층
QVV3RC,37.4855379,127.030826,명갈비곰탕,06734) 서울특별시 서초구 서운로6길 26 (서초동) 1층
5RR5UM,37.3622851,127.1052382,설램,13560) 경기도 성남시 분당구 정자일로 135 (정자동) 디동 1층 106호
HSMSFL,37.5555219,126.9737628,카페아이엠티(서울스퀘어점),"04637) 서울특별시 중구 한강대로 416 (남대문로5가) 지하1층 31,33호(남대문로5가,서울스퀘어)"
R1MSJM,37.6535494,127.3067782,산천대축육곳간,12176) 경기도 남양주시 화도읍 마석로 28-2 1층
8785DU,37.4134343,127.0983949,밥풀(판교파미어스몰점),13449) 경기도 성남시 수정구 창업로 18 (시흥동) (시흥동) 2층 208호
JR5CRM,37.572303,126.8069946,카츠쿠니,07601) 서울특별시 강서구 양천로 28 (방화동) 지층 B104호 
0CTAZ5,37.4010089,126.9689915,가츠라(인덕원점),"14056) 경기도 안양시 동안구 학의로 282 (관양동) 1층 143호 관양동, 금강펜테리움IT타워 "
1YO31N,37.4788918,127.0498857,돈바치(개포점),06309) 서울특별시 강남구 개포로 250 (개포동) 1층 102호(개포동) 
XY08S7,37.4788918,127.0498857,돈바치(개포점)_미사용,"06309) 서울특별시 강남구 개포로 250 (개포동) , 1층 102호(개포동) "
YX0WQM,37.4901319,127.0056662,모스버거(롯데마트서초점),"06655) 서울특별시 서초구 서초대로38길 12 (서초동, 마제스타시티, 힐스테이트 서리풀) , 지하 1층(서초동)"
X6KGID,37.4819749,126.8981337,모락모락칼국수 구로디지털단지점,"08393) 서울특별시 구로구 시흥대로163길 33 (구로동) 1층 104호(구로동, 주호타워)"
IOXLFL,37.5649544,127.0014395,남대문 손칼국수,04547) 서울특별시 중구 을지로32길 35-32 (오장동) 1층
OD_OWFWRWX,37.479637,126.89545,어멍한상(오더),08393) 서울특별시 구로구 디지털로26길 38 (구로동) 2층 212-2호
S6C4HT,37.479637,126.89545,어멍한상,08393) 서울특별시 구로구 디지털로26길 38 (구로동) 2층 212-2호
YW27VS,37.5361199,127.133189,늘봄,"05339) 서울특별시 강동구 천호대로 1089 (천호동, 강동 헤르셔) 제복합시설동 제지1층 제비15호"
SODB1N,37.5151261,127.1024803,잠실설렁탕,"05510) 서울특별시 송파구 올림픽로 293-19 (신천동, 현대타워아파트)  지하1층"
WJB7DW,37.5396089,127.0614666,잇인박스,04786) 서울특별시 성동구 성수이로16길 48 (성수동2가) 1층 잇인박스(성수동2가)
BKR_00010018_1,37.3937862,126.6418742,버거킹(센트럴파크점),22003) 인천광역시 연수구 센트럴로 194 1층 
ICG265,37.572362,126.97418,도화솥밥&요리주점_QR,"03173) 서울특별시 종로구 새문안로5가길 3-10 (당주동) 2층(당주동,선덕빌딩)"
KENV03,37.5151261,127.1024803,잠실설렁탕,"05510) 서울특별시 송파구 올림픽로 293-19 (신천동, 현대타워아파트)  지하1층"
0ENVXZ,37.5361199,127.133189,늘봄_QR,"05339) 서울특별시 강동구 천호대로 1089 (천호동, 강동 헤르셔) 제복합시설동 제지1층 제비15호"
SB_3191,37.4475485,126.4580914,스타벅스(인천공항T1에어3F점),22382) 인천광역시 중구 운서동 2840 인천국제공항여객터미널(인천공항세관) 
N9QPMN,37.4917084,127.0397373,델리백,"06261) 서울특별시 강남구 도곡로 184 (도곡동) 103호(도곡동, 신호빌딩)"
VE2NO0,37.5620264,126.9412203,프로티너 연세대정문앞 신촌세브란스점,"03722) 서울특별시 서대문구 연세로 50-1 (신촌동) B1층 2호(신촌동,세브란스병원)"
PONNVN,37.3643622,127.1063104,우본관(정자),13558) 경기도 성남시 분당구 정자일로 158 (정자동) 101호
3XPOT3,37.5063829,126.708164,뚜레쥬르(산곡푸르지오점),21362) 인천광역시 부평구 마장로324번길 82 1층 
GS25_VFU48,37.5064651,126.7070618,GS25(부평푸르지오점),"21362) 인천광역시 부평구 마장로324번길 64, 1층 101,102호 (산곡동 124-84) "
PARIS_22435,37.5061119,126.7084671,파리바게뜨(산곡푸르지오),"21362) 인천광역시 부평구 안남로 261, 103호,105호(산곡동, 전방프라자) "
SE_17550,37.5067896,126.7051857,세븐일레븐(인천산곡한화점),403834) 인천광역시 부평구 마장로324번길 31 1층 
42140X,37.562723,126.9394595,파스쿠찌(연세심혈관병원점),"03722) 서울특별시 서대문구 연세로 50-1, 1층 신촌동,심장혈관병원"
LC0NL0,37.4845231,127.0373254,라그릴리아(양재점),06737) 서울특별시 서초구 남부순환로 2620 1층
4JM432,37.4950601,127.0297948,모닥스낵 강남,06241) 서울특별시 강남구 강남대로 358 (역삼동) 2층 205호
4UHP1B,37.4977256,127.0292972,부리또리(강남본점)_KIOSK,"06232) 서울특별시 강남구 테헤란로4길6 지하 1층 B105호(역삼동, 강남역센트럴 푸르지오 시티)"
9SE0QJ,37.4960397,127.0253107,더 비빔밥(강남역점),"06619) 서울특별시 서초구 서운로 138 (서초동, 서초동아타워) 지하 1층 주방5호"
ADGOAP,37.4976604,127.0295391,왁버거(강남점),"06232) 서울특별시 강남구 테헤란로4길 6 (역삼동) 지하1층 비125호(역삼동,강남역 센트럴 푸르지오 시티)"
U4UA4Z,37.4950601,127.0297948,단정 강남,06241) 서울특별시 강남구 강남대로 358 (역삼동) 2층 204호
45H5IU,37.4975891,127.0301849,국밥생각,06233) 서울특별시 강남구 테헤란로4길 13 (역삼동) (역삼동) 1층 101호
353C7L,37.4978195,127.026207,써브웨이(강남GT타워점),"06615) 서울특별시 서초구 서초대로 411 (서초동) 동관 1층 1호,2호,3호 "
FR8XFD,37.4946665,127.0304495,알렉산더 커피_QR,06242) 서울특별시 강남구 역삼로1길 20 (역삼동) 1층(역삼동)
OSBHAJ,37.4952088,127.0301858,샨쇼쿠라멘(강남본점),"06241) 서울특별시 강남구 테헤란로4길 46 (역삼동, 쌍용플래티넘밸류) 제지1층 제비상가 138호(역삼동,쌍용플래티넘밸류)"
R7RQPS,37.495616,127.0270887,잠바주스(서초삼성타운점),06621) 서울특별시 서초구 서초대로 74길 23 서초타운 트라팰리스 101호 
VQN8AJ,37.4952088,127.0301858,찌개마을_QR,"06241) 서울특별시 강남구 테헤란로4길 46 (역삼동, 쌍용플래티넘밸류) 비122호(역삼동)"
AOAT73,37.5680429,126.8259691,온더그립,07788) 서울특별시 강서구 마곡중앙로 161-17 (마곡동) 1층 117호
DDWND6,37.5619262,126.8371113,우지커피(마곡파인스퀘어점),07794) 서울특별시 강서구 마곡중앙8로5길 11 (마곡동) 1층
SELF_PELPA4,37.5680614,126.8259984,참이맛감자탕(마곡나루역점),07788) 서울특별시 강서구 마곡중앙로 161-17 (마곡동) 1층 103-104호 
Z952G1,37.5688515,126.8273387,구대장국밥(본점),07788) 서울특별시 강서구 마곡중앙로 161-8 (마곡동) 1층
FNG527,37.3388756,127.1093775,슬로우캘리(오리역점),13637) 경기 성남시 분당구 성남대로 34 1층 104호 
2JR85K,37.4060279,127.086876,우드스톤 판교,13453) 경기도 성남시 수정구 금토로80번길 22 (금토동) 113호
XGEZ1E,37.569601,126.9047649,(주)신마야,"03941) 서울특별시 마포구 월드컵북로 220 (성산동, 월드컵빌리지) 1층 101호(성산동, 월드컵빌리지)"
PZH_8309,35.863726,128.585582,피자헛(대구남산점),"41970) 대구광역시 중구 재마루길 77 (남산동, 남산롯데캐슬센트럴스카이) 상가3동3113호3114호"
0KYL8C,37.3393012,127.1093755,메가MGC커피 (오리역점),"13637) 경기도 성남시 분당구 성남대로 38 , 케이엔에프코퍼레이션 1층 101호 (구미동) "
GT9XI0,37.5048305,127.0431893,베어스타코(선릉본점),06147) 서울특별시 강남구 언주로98길 18 (역삼동) 201호(역삼동)
IHQLYT,37.5020168,126.8773824,팔도밥상_QR,08215) 서울특별시 구로구 경인로55길 13 (구로동) 1층
OXW1XE,37.558877,126.9366802,은화수식당(신촌점),03788) 서울특별시 서대문구 연세로 37 (창천동) 2층(창천동)
BKR_00000386,35.8504604,127.0807577,버거킹(전주만성DT점),54858) 전라북도 전주시 덕진구 온고을로 441 
LS_110003,37.3885333,127.229339,롯데슈퍼(광주점),12784) 경기도 광주시 태봉로 51 성원프라자 B101호 
LS_110012,37.5814513,127.0707101,롯데슈퍼(장안점),"02516) 서울특별시 동대문구 한천로46길 42 예신프라자 1층 101호, 110호, "
LS_110015,37.5051721,127.1145253,롯데슈퍼(송파점),"05664) 서울특별시 송파구 가락로 183 한양아파트 상가 제106호, 제107호 "
LS_110016,37.5212881,126.9324988,롯데슈퍼(여의점),07340) 서울특별시 영등포구 국제금융로 79 한양아파트 
LS_110041,37.6185552,126.9218624,롯데슈퍼(범서점),03350) 서울특별시 은평구 통일로 840 롯데슈퍼(범서점) 
LS_110046,37.6820563,126.7785381,롯데슈퍼(일산점),10355) 경기도 고양시 일산동구 고봉로 250 제1층 101호~102호 
LS_110047,37.5094191,127.0130498,롯데슈퍼(잠원점),06523) 서울특별시 서초구 신반포로 257 (잠원동) 신반포아파트 뉴타운빌딩 1층 
LS_110095,37.3084353,127.0762121,롯데슈퍼(수지점),16859) 경기도 용인시 수지구 수지로 62 1층 롯데슈퍼(수지점) 
LS_110103,37.292512,127.121458,롯데슈퍼(언남점),16919) 경기도 용인시 기흥구 구성로 118 롯데슈퍼(언남점) 
LS_110108,37.6590459,127.0353279,롯데슈퍼(쌍문점),"01394) 서울특별시 도봉구 도당로 10 쌍문동 LG트윈빌1 04호,106호~124호 "
LS_110126,37.6060249,126.922394,롯데슈퍼(역촌점),03404) 서울특별시 은평구 진흥로 103 기린빌딩 
LS_110131,37.519219,127.109206,롯데슈퍼(성내점),05507) 서울특별시 송파구 올림픽로37길 130 파크리오 A동 지하1층 102호~106호 
LS_110143,37.3393536,127.0951643,롯데슈퍼(용인동천점),16823) 경기도 용인시 수지구 동천로 69 제1호 
LS_110145,37.5757437,126.915567,롯데슈퍼(남가좌점),03690) 서울특별시 서대문구 거북골로 120 가재울센트레빌@ 제상가3동 제지2층 
LS_110206,37.2799423,127.0321287,롯데슈퍼(우만점),16240) 경기도 수원시 팔달구 중부대로143번길 39 롯데슈퍼(우만점) 
LS_110210,37.5029341,127.1252625,롯데슈퍼(가락점),05700) 서울특별시 송파구 오금로36길 8 롯데슈퍼(가락점) 
LS_110214,37.5111312,127.0860917,롯데슈퍼(잠실3동점),05555) 서울특별시 송파구 석촌호수로 61 트리지움 상가 지하1층 제126호외13호실 
LS_110261,37.5380677,126.9676185,롯데슈퍼(원효로점),04315) 서울특별시 용산구 백범로 341 리첸시아용산 제에이동 제비1층 제비101호~111호 
LS_110264,37.372797,126.9306235,롯데슈퍼(산본2동점),15802) 경기도 군포시 고산로677번길 40 대현빌딩 101~103호 
LS_110305,37.6459711,127.06407,롯데슈퍼(중계역점),01760) 서울특별시 노원구 덕릉로 517 정안프라자상가동 1층 일부 
LS_110338,37.4749667,126.7996787,롯데슈퍼(G소사점),14763) 경기도 부천시 소사구 은성로 82 한신아파트 
LS_110341,37.5458057,126.9325397,롯데슈퍼(G마포점),04087) 서울특별시 마포구 토정로 193 롯데슈퍼(G마포점) 
LS_110352,37.5029833,126.8960206,롯데슈퍼(G대림점),07377) 서울특별시 영등포구 대림로 251 롯데슈퍼(G대림점) 
LS_110365,37.5850354,126.9474505,롯데슈퍼(G홍제점),"03730) 서울특별시 서대문구 통일로 397 한신휴플러스상가 B4F B426,B427호 "
LS_110391,37.245107,127.0555363,롯데슈퍼(망포역점),"16689) 경기도 수원시 영통구 영통로 195 골든스퀘어 B1F B104호,B105호 "
LS_110419,37.7091504,127.1146693,롯데슈퍼(남양주청학점),12084) 경기도 남양주시 별내면 청학로중앙길 41 롯데슈퍼(남양주청학점) 
LS_110423,37.6315349,126.8707374,롯데슈퍼(고양원흥점),10551) 경기도 고양시 덕양구 도래울2로 3 1동 제1층 제101호 
LS_110442,37.532937,126.6415252,롯데슈퍼(인천청라점),22763) 인천광역시 서구 청라루비로42번길 6-9 롯데슈퍼(인천청라점) 
LS_110467,37.4850892,127.1332182,롯데슈퍼(위례중앙점),05852) 서울특별시 송파구 위례광장로 136 위례아이파크 에비뉴상가 C동 지하1층 B01호~B06호 
LS_110491,37.4954141,127.0164028,롯데슈퍼(프리미엄서초점),06601) 서울특별시 서초구 서초중앙로24길 27 G-5 센트럴프라자 상가지하 1층 
LS_110494,37.5143167,127.1007497,롯데슈퍼(프리미엄잠실점),05510) 서울특별시 송파구 올림픽로 269 롯데캐슬골드 상가 지하1층 
LS_110512,37.275657,127.115944,롯데슈퍼(프리미엄기흥점),17065) 경기도 용인시 기흥구 기흥역로 63 힐스테이트 기흥 AK몰 지하1층 
LS_110540,37.5141841,127.1092098,롯데슈퍼(방이점),05548) 서울특별시 송파구 올림픽로32길 20 롯데슈퍼(방이점) 
LS_110541,37.5369037,127.2068925,롯데슈퍼(하남감일점),12996) 경기도 하남시 신우실로 61 롯데슈퍼(하남감일점) 
LS_110548,37.4504577,126.6601098,롯데슈퍼(인하대점),22208) 인천광역시 미추홀구 인하로 107 롯데슈퍼(인하대점) 
LS_120786,37.5519119,127.0921662,롯데프레시(서울아차산점),04954) 서울특별시 광진구 자양로 293 롯데프레시(서울아차산점) 
LS_120811,37.5125374,127.0383688,롯데프레시(서울논현점),06101) 서울특별시 강남구 언주로122길 25 두산위브아파트 지하1층 B101~B105 지하1층 B101~B105 
LS_120916,37.6096614,127.132336,롯데프레시(구리인창점(2)),11919) 경기도 구리시 동구릉로85번길 49 1층 
LS_130002,37.3167789,127.0617707,롯데슈퍼(용인성복점),16854) 경기도 용인시 수지구 성복1로163번길 8 버들치상가 B1층 
LS_130008,37.2031489,127.0273275,롯데슈퍼(E병점역점),18367) 경기도 화성시 병점노을로 31 1층 
LS_120847,37.4908832,127.010625,롯데프레시(서초대로점),06646) 서울특별시 서초구 서초대로46길 35(서초동) 1층 
5DB1QC,37.3781212,127.1123249,화덕생선구이어반(수내역점),13595) 경기도 성남시 분당구 황새울로214번길 8 (수내동) 1층
67B1AM,37.3795517,127.1162582,매머드익스프레스(수내2호점),"13595) 경기도 성남시 분당구 황새울로258번길 32, 1층 115호 "
CNHDP1,37.37748,127.1125095,화로사랑,13595) 경기도 성남시 분당구 백현로101번길 17 (수내동) 1층 113호~115호
F0Y10M,37.3794309,127.1161018,뮤추얼커피로스터스_QR,13595) 경기도 성남시 분당구 황새울로258번길 32 (수내동) 1층 118호
1IMC9T,37.4704262,126.4321026,아모제푸드_인천공항 제2합동청사B,22382) 인천 중구 제2터미널대로 444 제2합동청사 지하1층 직원식당 
4NZ26H,37.3622851,127.1052382,솔솥(정자점),"13560) 경기도 성남시 분당구 정자일로 135 (정자동)  (정자동) D112, D113"
QM5YZA,37.3404969,127.1080892,비스트로 분당김치찜 본점,"13636) 경기도 성남시 분당구 성남대로 51 (구미동) 1층 102, 103-1호"
TZYI9K,37.4061233,127.0853538,핸드메이드(판교이노베이션랩점),13453) 경기도 성남시 수정구 금토로80번길 11 (금토동) 근린생활동 지하1층 B109호
GW9IO1,37.5075408,127.0605977,트레스텔레,06180) 서울특별시 강남구 테헤란로 518 (대치동) B1층
4VHQ4T,37.4814958,127.0147568,소노야(양재역점)_QR,06735) 서울특별시 서초구 남부순환로 지하2585 (서초동) 지하 1층
7ZZYRK,37.4867034,127.0359749,라비르,06264) 서울특별시 강남구 남부순환로359길 30 (도곡동) 1층
KQ58IE,37.4808391,127.0389163,호랑이초밥(양재점),06744) 서울특별시 서초구 남부순환로356길 92 (양재동) 1층
MSKKKT,37.484286,127.035773,정성순대(양재역점),06737) 서울특별시 서초구 남부순환로350길 11 (양재동) 1층
OC649H,37.486589,127.0341219,수정골한상,06266) 서울특별시 강남구 남부순환로351길 28  101호
SELF_HI8VFK,37.4856327,127.0370746,맛나반찬_QR,"06268) 서울특별시 강남구 남부순환로361길 9 (도곡동, 천성빌딩) 천성빌딩1층 101호"
UGS8EG,37.4855843,127.0372643,게스트로바리스타_QR,06268) 서울특별시 강남구 남부순환로361길 7 (도곡동) 지하 1층
ZII1YJ,37.4846657,127.0372107,던킨도너츠(양재사옥점),"06737) 서울특별시 서초구 남부순환로 2620 (양재동, 강남피타워 지하1층) "
EAIZEY,37.3652659,127.1063068,비스트로 분당김치찜(정자점),13558) 경기도 성남시 분당구 성남대로331번길 13 (정자동) 208호
4FK2TW,37.4813116,127.0379652,스노우폭스(양재역점),06744) 서울특별시 서초구 강남대로 186 (양재동) 1층
6YOOPD,37.4952088,127.0301858,더타코부스(강남역점)_QR,"06241) 서울특별시 강남구 테헤란로4길 46 (역삼동, 쌍용플래티넘밸류) 1층"
LEE7J5,37.504713,127.0460386,봉추찜닭(선릉역점),06148) 서울특별시 강남구 선릉로93길 32 (역삼동) 2층
NIOATN,37.5060086,127.0500992,달라(선릉본점),06162) 서울특별시 강남구 테헤란로63길 11 (삼성동) 1층
XSZK2T,37.5058431,127.0486046,에삐(주식회사 리트릿)_QR,06161) 서울특별시 강남구 선릉로 518 (삼성동) 1층
TN25GB,37.3974278,127.1120459,대진도원참치 ,"13524) 경기도 성남시 분당구 판교역로192번길 14-2 (삼평동) 2층 삼평동, 골드타워"
9MXQPF,37.4037383,127.1091178,보이차전문점 차향당,13488) 경기도 성남시 분당구 판교로319번길 13 (삼평동) 107호
SB_4751,37.560576,126.8012665,스타벅스(김포공항국내선점),07505) 서울특별시 강서구 하늘길 112 (공항동) 
RG0ZPA,37.5131412,126.7826027,빽다방(부천도당산업단지점),14521) 경기 부천시 옥산로220번길 26 1층 일부(도당동) 
V8IYTM,37.5084644,127.066188,남산옥_QR,06175) 서울특별시 강남구 테헤란로108길 15 (대치동) 1층
IHSRBW,37.402122,127.1104451,메가MGC커피(판교하이펙스점),"13493) 경기도 성남시 분당구 판교역로 240, 1층 112호(삼평동, 삼환하이펙스A동)"
XCYX3T,37.3912472,127.1089885,두찜(분당백현점),13531) 경기도 성남시 분당구 판교역로 109 (백현동) 1층
1JBZR6,37.3399413,127.1099523,179실비,13637) 경기도 성남시 분당구 구미로9번길 17 (구미동) 1층
LKLHO6,37.3403236,127.1099404,우주부대찌개,13637) 경기도 성남시 분당구 구미로9번길 25 (구미동) 제1동 제1층 104-2호
2YDA0A,37.5621436,127.0058421,골목집,04616) 서울특별시 중구 퇴계로56길 40 (장충동2가) 1층
EH75FA,37.56207,127.0058003,사해루_QR,04616) 서울특별시 중구 퇴계로56길 42 (장충동2가) 1층
GSU3Z4,37.5620977,127.0060478,장충쭈꾸미&양푼김치탕,04616) 서울특별시 중구 퇴계로56길 39 (장충동2가) 1층
XEJG34,37.5619243,127.0056785,남소영가마솥_QR,04616) 서울특별시 중구 퇴계로56길 46 (장충동2가) 1층
EZ9FNK,37.4910886,127.0110294,육수정(교대역직영점),06646) 서울특별시 서초구 반포대로28길 46 (서초동) 1층 나호(서초동)
2D65W9,37.3727334,126.9447533,맘스터치(금정역AK점),"15809) 경기도 군포시 엘에스로 143 (금정동, 힐스테이트 금정역) 맘스터치(금정역AK점) "
CUL_RNO6MG,37.372183,126.9443733,AK플라자(금정점),15809) 경기도 군포시 엘에스로 143
OCCKRF,37.3742621,126.9469272,바나타이거(금정역SKV1점),14118) 경기도 안양시 동안구 엘에스로 142 호계금정역 SKV1 center C동 1층 121호 (호계동) 
SB_3824,37.3730902,126.9486275,스타벅스(호계지식산업센터점),14118) 경기도 안양시 동안구 호계동 555-45 호계 데시앙플렉스  데시앙플렉스 118~123호 
SB_4292,37.3604698,126.9398315,스타벅스(금정AK점),15809) 경기도 군포시 금정동 916 힐스테이트 금정역 AK플라자 4층 일부 
XD9P54,37.4901319,127.0056662,오앤콩,"06655) 서울특별시 서초구 서초대로38길 12 (서초동, 마제스타시티, 힐스테이트 서리풀) 마제스타시티, 힐스테이트 서리풀"
LIQUJK,37.4937318,127.0094479,우일무이,06595) 서울특별시 서초구 법원로3길 8 (서초동) 1층
LXVM0J,37.4870822,127.0090359,서초한상_QR,"06670) 서울특별시 서초구 반포대로19길 9-3 (서초동, 서초클레어) 1층"
THPH2A,37.4917997,127.0092221,정통부대고기(서초직영점),06647) 서울특별시 서초구 반포대로30길 11 (서초동) 1층
CN0SM7,37.36433,127.1067706,솔밭삼겹살(분당점),"13558) 경기도 성남시 분당구 성남대로331번길 11-15 (정자동)  정자동, 봉우빌딩 1층(정자동) "
PZH_8040_1,35.8692272,128.7121188,피자헛(대구안심점),41112) 대구광역시 동구 경안로 751 (동호동) 피자헛
GUB3MW,37.377233,127.1121602,찰리스버거(수내점),13595) 경기도 성남시 분당구 백현로101번길 13 (수내동) 1층 106호
DJJP2M,37.4835653,126.8954998,육지로_QR,08390) 서울특별시 구로구 디지털로 288 (구로동) 지하1층 B113-2호
A8CMX5,37.6453327,126.7930866,곤트란쉐리에(일산병원점),10444) 경기 고양시 일산동구 일산로 100 일산병원 지하1층
25N3YJ,37.377233,127.1121602,파쿠토리,13595) 경기도 성남시 분당구 백현로101번길 13 (수내동) 107~108호(수내동)
PWHS86,37.5607489,126.9724896,주식회사반포식스(숭례문점)_QR,04511) 서울특별시 중구 세종대로7길 37 (순화동) 지하 1층
X0W7X2,37.37748,127.1125095,칼수담(성남분당수내역점),13595) 경기도 성남시 분당구 백현로101번길 17 (수내동) 1층 108호
W11820,37.3391846,127.1098222,고향김치전골_QR,13637) 경기도 성남시 분당구 구미로9번길 13-7 (구미동) 1층
OGDTFL,37.4996351,127.0285951,광장포차818_QR,"06129) 서울특별시 강남구 강남대로94길 15 (역삼동) 2층(역삼동, 에스투빌딩) "
SELF_VXG3RC,37.4834802,126.8950932,일품양평해장국 구로디지털점,08390) 서울특별시 구로구 디지털로 288 (구로동) 109호 일품양평해장국 대륭1차점
5PL30V,37.4012686,127.1086539,후토루(판교삼평점)_KIOSK,"13494) 경기도 성남시 분당구 판교역로 231 , 지1층 B128호, B128-1호(삼평동, 에이치스퀘어 에스동)"
QXQSZL,37.5137708,127.1084691,잠실 샤브샤브 퀸즈가든,05548) 서울특별시 송파구 올림픽로32길 22-20 (방이동) 2층(방이동)
IH2I58,37.3973219,127.1135683,커피미학(판교점)_POS,"13525) 경기도 성남시 분당구 동판교로177번길 25 218,219호(상평동)"
9UFK42,35.1390934,126.810632,디에이치푸드QR,62425) 광주광역시 광산구 상무대로 420-25 (신촌동) 광주공항 1층
OD_SLFJ0EE,36.7221003,127.4959333,커피니(청주공항점),28142) 충청북도 청주시 청원구 내수읍 오창대로 980 청주국제공항
CD7ZTW,37.3337913,127.930217,퀴즈노스(원주무실법원점),26392) 강원도 원주시 능라동길 70 (무실동) 1층 101호 
QO0CDD,37.5666042,126.8384149,담소정한식뷔페_QR,"07792) 서울특별시 강서구 마곡중앙8로5길 63 (마곡동) 1층 101호~106호( 마곡동, 마곡디엠프라자1차)"
0QWK2W,37.5708463,126.9799236,신승관,"03157) 서울특별시 종로구 종로 19 (종로1가) 217,218호(종로1가, 르메이에르종로타운) "
NO7BVM,37.4147997,126.9904917,노브랜드버거 (과천RF사옥점),13824) 경기도 과천시 과천대로12길 110 (갈현동) 1동 별관 109호
XP4DWV,37.4816078,126.8934784,노브랜드버거 (구로하이엔드점),"08389) 서울특별시 구로구 디지털로26길 5 (구로동) 지하1층 B103-2, "
FFRKBK,37.5608118,126.8295717,노브랜드버거 (마곡점),"07801) 서울 강서구 마곡중앙6로 21 마곡동, 이너매스마곡Ⅰ1층 "
KUZWBW,37.5677264,126.8239568,최원재 함흥냉면,"07595) 서울특별시 강서구 양천로30길 123-9 (마곡동, 신안아파트)  마곡동, 신안아파트 상가동 104호 일부 및 105호 "
693T8X,37.3769784,127.1136191,더진국수육국밥(수내역점),"13595) 경기도 성남시 분당구 황새울로200번길 32 (수내동) 1층 102,103호"
9PUVV5,37.3769784,127.1136191,더진국수육국밥(수내역점),"13595) 경기도 성남시 분당구 황새울로200번길 32 (수내동) 1층 102,103호"
39ZGWK,37.5085046,127.0663173,선비칼국수(삼성대치점),06175) 서울특별시 강남구 영동대로86길 27 (대치동) 지하 1층
7KIACW,37.3973219,127.1135683,콘타이(아브뉴프랑판교점),"13525) 경기도 성남시 분당구 동판교로177번길 25 (삼평동, 판교 호반 써밋 플레이스) 222호"
HZ04CD,37.3964796,127.1114948,판교장어사랑(판교역점),"13524) 경기도 성남시 분당구 대왕판교로606번길 39 (삼평동) 1층 103호, 104호"
L23CIG,37.3954348,127.1135309,정백선순대(판교역점),13525) 경기도 성남시 분당구 대왕판교로606번길 58 (삼평동) 1층 1-67호
SELF_JEDFCY,37.5623045,126.826615,밥플러스마곡케이스퀘어_QR,07800) 서울특별시 강서구 마곡중앙로 105-7 (마곡동) B동 지하2층 B213호
V6F6C8,37.3794309,127.1161018,카소미야(분당수내점),13595) 경기도 성남시 분당구 황새울로258번길 32 (수내동)  (수내동) 109.110호
AZR5HR,37.3800471,127.1160698,강호식당,13595) 경기도 성남시 분당구 황새울로258번길 10-9 (수내동) 1층
SELF_F0OCIV,37.3968964,127.1119239,여의도미나리삼겹(판교직영점),13524) 경기도 성남시 분당구 대왕판교로606번길 45 (삼평동) 2층 205호
1C0BHW,37.513917,127.0296321,써브웨이(학동역점),"06046) 서울특별시 강남구 학동로 171 1층,103호 써브웨이 "
AY94OR,37.5144844,127.0335016,우화(학동본점),06104) 서울특별시 강남구 학동로 224 (논현동) 1층
V1RQI8,37.5173826,127.0363495,백삼십육길 육미,06058) 서울특별시 강남구 언주로136길 9 (논현동) 2층
SELF_Y138WA,37.402122,127.1104451,카페파라(테크노점),13493) 경기도 성남시 분당구 판교역로 240 (삼평동) 108호
SW891Y,37.4012686,127.1086539,삼평상회,13494) 경기도 성남시 분당구 판교역로 231 (삼평동) 지하 1층
3MX05D,37.3954408,127.1103669,에프와이에스디_QR,13529) 경기도 성남시 분당구 판교역로 166 (백현동) 1층 유닛9-2
92JMLD,37.3858798,127.1138423,메이크어케이크_QR,13535) 경기도 성남시 분당구 동판교로52번길 21-6 (백현동) 1층
TI7JIH,37.3734505,127.1022581,주식회사 메케_QR,13550) 경기도 성남시 분당구 대왕판교로 334 (궁내동) 1층
JQWMLZ,33.5063344,126.4952613,브레댄코(제주공항점),63115) 제주특별자치도 제주시 공항로 2 #용담이동# 브레댄코 
NH0GST,37.44678,126.447606,엔제리너스(인천공항 T1 1F),22382) 인천광역시 중구 공항로 272 (운서동) 1층 12번 게이트 앞
4ZJRKC,37.553343,126.8093608,마리짱(화물청사점),"07505) 서울특별시 강서구 하늘길 210 (공항동) 지하1층(공항동,한국항공화물청사)"
TH6PZJ,37.553343,126.8093608,마리짱(주식회사 삼봉),07505) 서울 강서구 하늘길 210 한국항공화물청사 지하1층 
YX4Y7B,37.4976604,127.0295391,무삥과팟타이(강남점),"06232) 서울특별시 강남구 테헤란로4길 6 (역삼동) 지하1층 B123호(역삼동,강남역 센트럴 푸르지오 시티)"
QFY2XA,37.5674644,126.9830253,호앙비엣(을지로입구역점),04540) 서울특별시 중구 남대문로 116 (남대문로1가) 1층
8JCRNZ,37.5633299,126.9758391,교동전선생(서소문점)_POS,100814) 서울시 중구 서소문로 134-10 (서소문동)
WBLWNQ,37.5377148,127.1285557,본가네국밥(천호점)_QR,"05335) 서울특별시 강동구 천호대로161길 7 (천호동) 상가동 1층 103호(천호동,이안강동 컴홈스테이)"
18N75V,37.4037706,127.0997462,우림 닭갈비,13486) 경기도 성남시 분당구 판교로255번길 9-22 (삼평동) 2층
OMI30M,37.563666,126.9413706,이코복스커피(이다하우스),03722) 서울특별시 서대문구 연세로 50-1 (신촌동) 례식장 4층
AX40CF,37.3643622,127.1063104,주식회사 우본관,13558) 경기도 성남시 분당구 정자일로 158 (정자동) 101호
GU2JXN,37.3772632,127.1130737,맘스터치(수내역점),"13595) 경기도 성남시 분당구 백현로101번길 20 103호,104호"
S2JOCY,37.4403726,126.461256,커피포트(4호점),22382) 인천광역시 중구 공항로424번길 47 (운서동) 1층 
E3VS1O,37.4820367,126.8977031,타이두,08393) 서울특별시 구로구 디지털로26길 110 (구로동) 1층 103호
QW622Q,37.5061477,127.0509927,컴포즈커피(테헤란로점),06160) 서울특별시 강남구 테헤란로63길 12 비동 1층 102호(삼성동)
NJXJ2Q,37.5655226,127.0026403,만랩커피(을지로5가점),"04561) 서울특별시 중구 동호로 350, 1층(을지로5가) "
M5GMKL,37.4800519,126.4484927,플레이팅(인천공항점),22382) 인천광역시 중구 공항로 272 1층 중앙 
Z0AFQ8,33.5068279,126.4933042,플레이팅(제주공항 국내선 4F점),63115) 제주특별자치도 제주시 공항로 2 제주국제공항 국내선 4층 L/S SKY31푸드에비뉴 
NFTVXY,37.5064687,127.0528491,우와해(선릉본점),06159) 서울특별시 강남구 테헤란로69길 8 (삼성동) 1층
S1UYBH,37.5064687,127.0528491,우마음,06159) 서울특별시 강남구 테헤란로69길 8 (삼성동) 1층
QRABM5,37.4117817,127.0964661,런치포유_QR,13449) 경기도 성남시 수정구 창업로 43 (시흥동) B-110~112호 
5HYQKL,37.4869669,126.895301,우림 더이룸푸드,08377) 서울특별시 구로구 디지털로33길 28 (구로동) 지하 1층
RCWRDJ,37.402122,127.1104451,행복청국장보리밥,"13493) 경기도 성남시 분당구 판교역로 240 (삼평동) 지하1층 B-101호(삼평동,삼환하이펙스A동)"
LFEQJY,37.4011402,127.1073465,한마음 정육식당(판교테크노밸리점),13494) 경기도 성남시 분당구 대왕판교로 660 (삼평동) 1층
EWCX2Q,37.5355664,127.1348353,가마솥순대국밥(강동역점),"05355) 서울특별시 강동구 천호대로 1107 (길동, 강동역에스케이허브) 1층 104호"
FN61TI,37.5147193,126.8975808,미가음식점,07299) 서울특별시 영등포구 경인로 775 (문래동3가) 지하1층 비189호
Y4CN5R,37.3976861,127.1114189,판교 인생곱창,13524) 경기도 성남시 분당구 판교역로192번길 16 (삼평동) 1층
4EE4KE,37.5174227,127.1033442,오아시스(잠실점),"05510) 서울특별시 송파구 올림픽로35가길 9 (신천동, 잠실 푸르지오 월드마크) 지하1층 B41호"
9IOXIN,37.5150089,127.1020785,훅트포케 (잠실점),05510) 서울특별시 송파구 올림픽로35다길 32 지하 1층 
E7N0F9,37.5161377,127.1030785,테루카츠(홈플러스잠실점),05510) 서울특별시 송파구 올림픽로35가길 16 (신천동)  1층
RNLRDB,37.5131893,127.108585,화반(방이점),05548) 서울특별시 송파구 오금로13길 8 (방이동) 1층(방이동)
5YABTN,37.5037742,127.0208003,멘야시노기_KIOSK,"06543) 서울 서초구 주흥길 3 ,108호,109호"
4QS8KZ,37.312684,127.079742,컴포즈커피(용인수지성복점),"16858) 경기도 용인시 수지구 수지로 124 1층 116호(성복동, 성복스퀘어근린생활시설)"
T968TL,37.402122,127.1104451,행복청국장보리밥,13493) 경기도 성남시 분당구 판교역로 240 (삼평동) 지하1층 B-101호
89VWIW,37.400662,127.1066111,타이팔칠(Thai87),13494) 경기도 성남시 분당구 대왕판교로 660 (삼평동) 1층
JR2W63,37.394296,127.1103268,샐러드SLB(판교역점)_KIOSK,13529) 경기도 성남시 분당구 판교역로 152 B1층 일부 
M4WV1E,37.4140971,126.9790518,샐러디(과천지식정보타운점),13840) 경기도 과천시 과천대로7길 20 148호 
XBJMUS,37.5124674,127.01873,도쿄파스타 클럽,06530) 서울특별시 서초구 신반포로47길 42 (잠원동) 윤덕빌딩 1층(잠원동)
YP3WO3,37.5434248,127.0606683,뼈탄집(성수역점),04798) 서울특별시 성동구 아차산로13길 2 (성수동2가) 1층(성수동2가)
3394SP,37.394296,127.1103268,페이딤(판교점),13529) 경기도 성남시 분당구 판교역로 152 (백현동) 2층 9호
O3QZDQ,37.3777616,127.1138172,매취랑(수내점),13595) 경기도 성남시 분당구 백현로101번길 30 (수내동) 1층 105호
J9GWRG,37.4989002,127.0260628,KFC(강남역점),06615) 서울특별시 서초구 서초대로77길 15 KFC강남역점 
Q9N5Q2,37.5665814,127.0029477,로네펠트티하우스(동대문점),04561) 서울특별시 중구 을지로 224 (을지로5가) 1층
SELF_YBMFNV,37.378842,127.1153194,장수본가해장국(수내직영점),13595) 경기도 성남시 분당구 황새울로258번길 42 (수내동) 1층
KTLXDG,37.4848847,126.8937437,맘스터치(구로IT점),"08381) 서울특별시 구로구 디지털로31길 19 (구로동, 에이스테크노타워), 1층 1층"
A5FTHC,37.4810871,126.8945005,오방김밥(구로디지털단지점),08389) 서울특별시 구로구 디지털로26길 43 (구로동) 1층 110-1호 
ABADKI,37.3314768,127.1264551,롯데리아(용인죽전1동점),"16880) 경기도 용인시 수지구 현암로 154 (죽전동, 거풍프라자 101,102,103호) "
2XOH6X,37.4896706,127.009154,육전국밥(서초역점)_KIOSK,"06648) 서울 서초구 반포대로 106 1층(서초동, 태홍빌딩) "
GN2NUS,37.4916267,127.0102813,포하이(교대점),06646) 서울특별시 서초구 서초대로46길 17 (서초동)  1층 102호
SA0TUP,37.486406,127.0080972,포카치아쿠치나,06670) 서울특별시 서초구 반포대로21길 51 1층
XO2SXS,37.4882056,127.0099304,호미스피자(서초점),06649) 서울특별시 서초구 반포대로20길 7-13 (서초동) 1층 101호
XZMHGR,37.4917675,127.0101354,샐러리아(서초점)_QR,06646) 서울특별시 서초구 서초대로46길 15 (서초동)  1층 102호
LDC37P,37.5688355,127.0087117,두타몰(꿀꿀진순대국),04563) 서울특별시 중구 장충단로 275 (을지로6가) 지하2층 108호
SP2HQV,37.4060279,127.086876,화란(트라이타워점),13453) 경기도 성남시 수정구 금토로80번길 22 (금토동) 2층
D5EO3W,37.4848251,127.0381049,곰작골나주곰탕(양재점),06738) 서울특별시 서초구 남부순환로 2626 (양재동) 4층
XSSFIB,37.4955539,127.0300898,우나기정,"06241) 서울특별시 강남구 테헤란로4길 46 (역삼동, 쌍용플래티넘밸류) 1층 104동 113호(역삼동, 쌍용플래티넘밸류)"
ETAZZQ,37.5082531,127.0664566,삼군김치찌개(대치점),06175) 서울특별시 강남구 영동대로86길 28 (대치동) 1층
IMUH4G,37.5082531,127.0664566,부찜,06175) 서울특별시 강남구 영동대로86길 28 (대치동) 2층
SELF_GPTC3H,37.5673141,126.8275549,우주공간,07788) 서울특별시 강서구 마곡중앙5로 6 (마곡동) 서관 1층 136호 우주공간
BVWKZ9,37.5610749,126.982401,육대장(명동점),04535) 서울특별시 중구 명동8나길 45 (충무로1가) 1층(충무로1가)
OMKBDM,37.3130487,127.0790145,카페 루미에르,"16849) 경기도 용인시 수지구 수지로 119 (성복동) 103호, 104호"
1BFWB0,37.37748,127.1125095,뚜레쥬르(분당수내역점),"13595) 경기도 성남시 분당구 백현로101번길 17 (수내동) , 110호(초림프라자)"
0ZD63C,37.4134343,127.0983949,델리커리(판교파미어스몰점),13449) 경기도 성남시 수정구 창업로 18 (시흥동) 판교파미어스몰 P1동 2층 210-1호
7RM23S,37.4808321,126.880662,그린잇,08503) 서울특별시 금천구 가산디지털1로 171 (가산동) 120호
BNCYGX,37.547903,127.055209,김뚜껑 부대찌개(성수점)_QR,"04792) 서울특별시 성동구 아차산로7길 29 (성수동2가) 1층(성수동2가, 성광빌딩) "
6N4887,37.4850954,126.8927111,천상현국가공인진갈비(구로디지털점),08375) 서울 구로구 디지털로31길 41 이앤씨벤처드림타워6차 106호 
2U6CDF,37.53676,127.1335888,한양진순대국_QR,"05339) 서울특별시 강동구 천호대로 1089 (천호동, 강동 헤르셔) 1층 b48호 "
2YWTFO,37.3404969,127.1080892,한꼬마 김밥_QR,13636) 경기도 성남시 분당구 성남대로 51 (구미동) 1층 117호
9R8Y3K,37.5604858,126.8008617,유미카츠(김포공항),07505) 서울특별시 강서구 하늘길 112 김포국제공항 국내선 1층 오사카키친 
6WAIRM,37.3973219,127.1135683,압구정샌드위치(판교 아브뉴프랑점),"13525) 경기도 성남시 분당구 동판교로177번길 25 (삼평동, 판교 호반 써밋 플레이스) 122-1~2호 (삼평동, 판교 호반 써밋 플레이스)삼평동, 판교 써밋 플레이스)"
SFXHUR,37.5597896,126.8304381,제이그램_QR,"07802) 서울 강서구 공항대로 205 마곡동, 에스에이치빌딩  1층 106호 "
EOKRUA,37.5210509,127.0360712,투뿔코리안 스테이크하우스(논현점),"06054) 서울 강남구 언주로148길 19 논현동, 청호빌딩 "
IMH3EU,37.568415,126.978284,투뿔코리안 스테이크하우스(광화문점),"04520) 서울 중구 세종대로 136 태평로1가, 파이낸스빌딩 지하 1층"
JB6JJ4,37.3622851,127.1052382,돼지공탕하우(정자점),13560) 경기도 성남시 분당구 정자일로 135 (정자동) 1층
YGCJPD,37.4352029,127.1751513,카페비비_QR,13211) 경기도 성남시 중원구 사기막골로62번길 33 (상대원동) R103호 
SKFAV8,37.2424331,126.9841744,팔팔쌀국수,16648) 경기도 수원시 권선구 산업로 180 (고색동) 114호 
RA0Q6Q,37.4040238,127.1000896,포앤타이(판교우림더블유씨티),13486) 경기도 성남시 분당구 판교로255번길 9-22 (삼평동) 2층
OKHBWB,37.3968964,127.1119239,홍대칼국수와족발(판교역점),13524) 경기도 성남시 분당구 대왕판교로606번길 45 (삼평동) 1층 111호
T1ZJIF,37.402122,127.1104451,뉴욕 전기구이,13493) 경기도 성남시 분당구 판교역로 240 (삼평동) 1층 122호
FLKCJB,37.397763,127.1114286,맘키스포카치아Momkey_KIOSK,13524) 경기 성남시 분당구 판교역로192번길 16 판교타워 101호 
B992HK,37.495725,127.1221059,백소정(송파가락점),05717) 서울특별시 송파구 송파대로28길 43 (가락동) 1층
2UZLU9,37.4961505,127.0303601,주식회사담원순대,06241) 서울특별시 강남구 테헤란로4길 34 (역삼동) 1층 101호 
KXJRLE,37.4901173,127.0326525,돈카춘(뱅뱅사거리점),06253) 서울특별시 강남구 도곡로 111 (역삼동) 미진빌딩 지상1층
LHMA3B,37.5688355,127.0087117,컴포즈커피(동대문두타몰점),"04563) 서울특별시 중구 장충단로 275 지1층 41호(을지로6가, 두산타워빌딩)"
6QE39Y,37.4012686,127.1086539,본우리반상(판교H스퀘어점),"13494) 경기도 성남시 분당구 판교역로 231 (삼평동, 에이치스퀘어 에스동) 지하1층 B102호"
MX0CT2,37.3964792,127.1115011,메가MGC커피(판교역로점),"13524) 경기도 성남시 분당구 대왕판교로606번길 39 (삼평동, 럭스타워) 메가MGC커피(판교역로점) "
NPIUTK,37.4767391,126.8858264,가산커피(벽산점),"08513) 서울특별시 금천구 벚꽃로 244 (가산동) 1층 가산동, 벽산디지털밸리5차 "
QINPV6,37.5540949,126.8099073,tshop,07505) 서울특별시 강서구 하늘길 210 (공항동) 1층
4O0M0O,37.5009541,127.0408303,슬로우앤로(역삼1호점),"06221) 서울특별시 강남구 언주로85길 32 (역삼동) 2층 204호일부,205호"
AJMBYT,37.4857667,127.0364993,빌리엔젤(양재역점),06267) 서울특별시 강남구 강남대로42길 31 (도곡동) 1층
TUXG8X,37.3964667,127.1100481,(주)크레버대게나라,463400) 경기도 성남시 분당구 판교역로 178 서건타워
7DKHB6,37.2507775,127.0994154,CJ프레시웨이(파라다이스시티 이단계),17099) 경기도 용인시 기흥구 기곡로 32 하갈동 
LARQGO,37.2507775,127.0994154,CJ프레시웨이(파라다이스시티점),17099) 경기도 용인시 기흥구 기곡로 32 하갈동 
53RW32,37.4866016,127.0337106,피끄니크,06266) 서울특별시 강남구 강남대로48길 6 (도곡동) 1층 101호
0F8X3U,37.5075408,127.0605977,방배김밥(삼성섬유센터점)_QR,06180) 서울특별시 강남구 테헤란로 518 (대치동) 지하 1층
13600J,37.5083751,127.0581559,무삥과팟타이(삼성본점),06169) 서울특별시 강남구 삼성로96길 26-12 (삼성동) 2층
1G411C,37.5072273,127.0618137,사이공키친,06181) 서울특별시 강남구 영동대로85길 20-3 (대치동) 지하 1층
1ZWDMR,37.5068424,127.0594631,포케올데이(삼성점),06179) 서울 강남구 테헤란로88길 10 신안메트로칸 지하1층 B108호 
3H8JTC,37.506833,127.0609325,모구모구돈부리_QR,06180) 서울특별시 강남구 영동대로85길 34 (대치동) 1층
8PBRY9,37.5057546,127.0596805,휘초밥,06184) 서울특별시 강남구 삼성로84길 26 1층
DFHN04,37.5074238,127.0629416,백가향,06181) 서울특별시 강남구 영동대로85길 6 (대치동) 2층
I8BKZL,37.5064446,127.0595009,국민한우집(삼성역본점),06179) 서울특별시 강남구 테헤란로86길 15 (대치동) 1층
IIWN78,37.5074238,127.0629416,명동할머니국수(삼성역점)_QR,06181) 서울특별시 강남구 영동대로85길 6 (대치동) 1층
MT86S0,37.5071608,127.0614236,남다른감자탕(삼성역점),06181) 서울특별시 강남구 테헤란로92길 13 (대치동) 1층
QETNFP,37.5073315,127.061411,연화산_QR,06181) 서울특별시 강남구 테헤란로92길 11 (대치동) 2층
SB_3648,37.5077425,127.0605586,스타벅스(삼성역섬유센터R점),06180) 서울특별시 강남구 대치동 944-31 한국섬유산업연합회 
V5MLPV,37.5069265,127.0626003,하이보,06183) 서울특별시 강남구 영동대로85길 13 (대치동) 2층
VINMS0,37.5056488,127.0588061,제주은희네해장국(대치점)_QR,06185) 서울특별시 강남구 삼성로84길 15 (대치동) 1층
WKENWC,37.5068424,127.0594631,백반감자탕,06179) 서울특별시 강남구 테헤란로88길 10 (대치동) 지하1층
X6SSHG,37.5073817,127.061624,동인동_QR,06181) 서울특별시 강남구 영동대로85길 20-7 (대치동) 1층
X93WWA,37.5075408,127.0605977,육가온(삼성점),06180) 서울특별시 강남구 테헤란로 518 (대치동) 지하 1층
7DJWEZ,37.4825151,126.8972765,송가직화제육,"08390) 서울특별시 구로구 디지털로26길 111 (구로동) , 지하1층 지하002호(구로동, 제이앤케이디지털타워)"
DQQCE3,37.5509435,127.0446953,밥플러스(아이티캐슬점)_QR,04788) 서울특별시 성동구 광나루로 130 (성수동1가) 1층
SELF_W0O3WN,36.3582529,127.3888803,고반식당(둔산점),35209) 대전광역시 서구 한밭대로 809 (둔산동) 1층
SELF_1QP3QB,37.3382539,127.1013616,프라빈커피(동천역점),16827) 경기도 용인시 수지구 신수로 767 (동천동) A동229호 프라빈커피
HDK1Y5,37.4127277,127.0961281,오백국수(판교LH테크노점),"13449) 경기도 성남시 수정구 창업로40번길 6 (시흥동, 판교 제2테크노밸리 LH 1단지) 지2층 7호"
ESGREN,37.402122,127.1104451,수국정 판교,13493) 경기도 성남시 분당구 판교역로 240 (삼평동) 삼환하이펙스 A동 지하 121호
AHM4AG,37.402122,127.1104451,수국정 판교,13493) 경기도 성남시 분당구 판교역로 240 (삼평동) A동 지하 121호
SDD8WO,37.4012832,127.1104541,베이징스토리(판교점),"13493) 경기도 성남시 분당구 판교역로 230 (삼평동) 1층 120-1, 121호"
Y8NE5T,37.5647746,126.825252,오근내10닭갈비,"07797) 서울특별시 강서구 마곡중앙로 143 (마곡동) 본동 지하2층 230,231호"
IZPL4V,37.5358353,127.1368204,본가왕뼈감자탕(길동사거리점),05355) 서울특별시 강동구 진황도로 96 (길동) 1층
7DYWCJ,37.503174,127.0385281,심가네칼국수(역삼역본점),06140) 서울특별시 강남구 논현로94길 29-3 (역삼동) 지하1층
LMAV6Q,37.4953122,127.0317237,심가네칼국수(강남역본점),06243) 서울특별시 강남구 강남대로78길 30 (역삼동) 1층
NFPWH1,37.4949423,127.0274263,꾸아(강남역삼성타운점),"06621) 서울특별시 서초구 서초대로74길 29 (서초동, 서초파라곤) 104호"
OX5OQI,37.4953173,127.0272515,순대생각(강남본점),06621) 서울특별시 서초구 서초대로74길 27 (서초동) 1층 103호
QAPQTC,37.4976604,127.0295391,멘야유메미루(강남점),06232) 서울특별시 강남구 테헤란로4길 6 (역삼동) 1층 113호
V79HDH,37.5044024,127.0532963,심가네칼국수(선릉역본점),06193) 서울특별시 강남구 테헤란로70길 16 (대치동) 지상1층 비1호
ZIRIYY,37.4950601,127.0297948,오제제(강남점),06241) 서울특별시 강남구 강남대로 358 (역삼동) 2층 201호
SKB6L7,37.5057058,127.0586253,옥된장(삼성2호점),06185) 서울특별시 강남구 삼성로86길 14 (대치동) 1층
8B5SVO,37.402122,127.1104451,텐버거(판교점),13493) 경기도 성남시 분당구 판교역로 240 (삼평동) 지1층 비-110호
XIMP7R,37.3973219,127.1135683,이도곰탕(판교직영점),"13525) 경기도 성남시 분당구 동판교로177번길 25 (삼평동, 판교 호반 써밋 플레이스) 205호"
SELF_MRDV22,37.5014375,127.0338567,올라포케(역삼점),06131) 서울특별시 강남구 논현로95길 29-8 (역삼동) 102호 올라포케
0ELDTZ,37.53676,127.1335888,오쏘헬씨_QR,"05339) 서울특별시 강동구 천호대로 1089 (천호동, 강동역 신동아 파밀리에) 지하1층 B44호 "
YRY9AF,37.53676,127.1335888,우미관_QR,"05339) 서울특별시 강동구 천호대로 1089 (천호동, 강동 헤르셔) 1층 B41,42호 "
DJ89Q4,37.53676,127.1335888,성화마라탕(강동점)_QR,"05339) 서울특별시 강동구 천호대로 1089 (천호동, 강동역 신동아 파밀리에) 지1층 B120호 "
8C72HX,37.53676,127.1335888,바른보쌈1990(강동점)_QR,"05339) 서울특별시 강동구 천호대로 1089 (천호동, 강동 헤르셔) 1층 B45호 "
0VX8L3,36.1388063,128.4185322,뚜레쥬르(구미옥계점),39181) 경상북도 구미시 옥계북로 9 (옥계동) 890-4 1층 
069AMT,37.529491,126.9241352,가락곰칼국수한식,07241) 서울특별시 영등포구 국회대로76길 33 (여의도동) 1층 
MV49PD,37.4914575,127.0112357,부산아지매국밥(교대점)_QR,06646) 서울특별시 서초구 반포대로28길 51 (서초동) 1층 
GF80EE,37.5335935,127.136287,온정담,05373) 서울특별시 강동구 천호대로176길 19 (성내동) 1층 
BMA29F,37.4960035,127.0304378,멘노아지 강남역신분당선점,06241) 서울특별시 강남구 테헤란로4길 38 태영빌딩 1층 
SELF_X8BBI8,37.3980544,127.112015,(주)석문어판교역점,"13524) 경기도 성남시 분당구 판교역로192번길 22 (삼평동) 1층 102호, 103호"
MWNLLH,37.5619609,126.976494,할리스커피(태평로점),04526) 서울특별시 중구 세종대로 64 해남빌딩 1층 할리스커피 태평로점 
P7S537,37.4850038,127.032145,뎁짜이(개포점),"06325) 서울특별시 강남구 선릉로10길 4-4 (개포동) 요셉빌딩 1층 101, 102호"
5U18X3,37.5204896,127.0337083,이디야(강남나누리병원점),"06048) 서울 강남구 언주로149길 5 논현동 , 1층 "
SELF_F1AFOZ,37.3825443,127.2325606,프랭크버거(태전점),12789) 경기도 광주시 벼루개로 36 (태전동) 1층 109호 
MMUTKG,37.3943019,127.1122006,일도씨닭갈비(판교점),13529) 경기도 성남시 분당구 분당내곡로 117 (백현동)  그레이츠판교 지하1층
NVP7QX,37.4012686,127.1086539,푸가(판교점)_QR,13494) 경기도 성남시 분당구 판교역로 231 (삼평동) 지하 1층 B125호
SELF_C0OVPU,37.4012686,127.1086539,푸가(판교점),13494) 경기도 성남시 분당구 판교역로 231 (삼평동) 지하1층 B125호
8UR8ML,37.569296,126.8262753,이디야(마곡헤리움점),"07788) 서울특별시 강서구 마곡중앙5로1길 25 1층108호(마곡동, 마곡헤리움2차) "
KTTNKY,36.3974482,127.4244295,수자원(낙동강동부사업단)_QR,34350) 대전광역시 대덕구 신탄진로 200 (연축동) 한국수자원공사
B9FON6,37.4012686,127.1086539,이소정카츠(판교점),13494) 경기도 성남시 분당구 판교역로 231 (삼평동) 에스동 지하1층 B110호
T948US,37.4012839,127.1086461,예술작품을 빚다 비즐,"13494) 경기도 성남시 분당구 판교역로 231 (삼평동) S동 1층 126호(삼평동,에이치스퀘어 에스동)"
G8946B,37.5017258,127.0356676,프랭크버거(역삼점),"06132) 서울특별시 강남구 테헤란로25길 20 (역삼동) 201호(역삼동,역삼현대벤쳐텔) "
6H3KIH,37.5048797,127.063316,경성옥(삼성역점),"06183) 서울특별시 강남구 역삼로 555 대치동, 대치동 더블유 타워 지하1층 "
E8WNVZ,37.5650915,126.9039383,프랭크버거(마포구청역점),"03938) 서울 마포구 월드컵로34길 14 성산동, 벽산상암스마트큐브 1층 109호 "
JG43XK,37.4073127,127.089428,샐러디(판교도시첨단점),13453) 경기도 성남시 수정구 금토로80번길 51 1층 105호 
JX65IS,37.4793496,126.8964244,커피시선,"08393) 서울특별시 구로구 시흥대로161길 50 1층 103호 구로동, 신성미소지움 "
HO221L,37.4772466,126.8851308,요미우돈교자(퍼블릭가산점),08513) 서울특별시 금천구 디지털로 178 (가산동) 1층 130호 가산퍼블릭 B동 M-130호 
UK684Y,37.4781476,126.8961834,GS육천냉면,08529) 서울특별시 금천구 남부순환로 1304 (가산동) 103호(가산동) 
5PGKSL,37.5088119,127.0564077,오 예술김밥_QR,06167) 서울특별시 강남구 삼성로96길 7 (삼성동)  1층
XM4SQN,37.4149461,127.1133995,토브나인(tov9),"13446) 경기도 성남시 수정구 사송로 56 (사송동) 1층, 2층"
V4WRJ0,37.4040238,127.1000896,감성커피(판교우림W시티점),13486) 경기도 성남시 분당구 판교로255번길 9-22 (삼평동) 1층
CFJ2ZN,37.3835517,127.1208804,컴포즈커피(분당서현로데오점),"13591) 경기도 성남시 분당구 분당로53번길 3 1층(서현동, 농업협동조합중앙회) "
4QUO3S,37.5662544,126.8255948,제이스팟(마곡점),"07797) 서울특별시 강서구 마곡중앙로 143 (마곡동) 지하2층 208호(마곡동,르웨스트시티) "
AA4TSU,37.4813439,126.8947741,식당지로,08389) 서울특별시 구로구 디지털로26길 43 (구로동) 1층 103호 
44P5VK,37.3973219,127.1135683,메이크어케이크(아브뉴프랑판교점)_QR,"13525) 경기도 성남시 분당구 동판교로177번길 25 (삼평동, 판교 호반 써밋 플레이스) 1층 151호"
PHS835,37.401288,127.1104439,빽다방(판교삼환하이펙스점),"13493) 경기 성남시 분당구 판교역로 230 B동 113호,112(일부)호"
1IUUC2,37.5327068,126.9589444,궁추어탕_QR,04372) 서울특별시 용산구 청파로 74 (한강로3가) 6층
FI58J6,37.5327068,126.9589444,포베이(용산전자랜드점)_QR,04372) 서울특별시 용산구 청파로 74 (한강로3가) 6층
RVB4VP,37.5330013,126.9594254,써브웨이(용산전자랜드점),04304) 서울특별시 용산구 청파로71길 72 (청파동1가) 1층 A-104호 
X8N97G,37.53676,127.1335888,시오미앤_QR,"05339) 서울특별시 강동구 천호대로 1089 (천호동, 강동 헤르셔) 지1층 비111호"
RH884Q,37.3643458,127.1063023,컴포즈커피(분당정자두산타워점),"13558) 경기도 성남시 분당구 정자일로 158 1층 103호(정자동, 백궁프라자2) "
B1LV1A,37.53676,127.1335888,팬 파스타 8393_QR,"05339) 서울특별시 강동구 천호대로 1089 (천호동, 강동역 신동아 파밀리에) 지하1층 B110호 "
TR7J1L,37.53676,127.1335888,키츠네_QR,"05339) 서울특별시 강동구 천호대로 1089 (천호동, 강동 헤르셔) 지1층 B109호 "
4BTV39,37.4859612,127.03598,국고집,06267) 서울특별시 강남구 남부순환로355길 14 (도곡동) 1층
71LCX2,37.4730894,127.0393984,라비드쿤_QR,06778) 서울특별시 서초구 마방로2길 15-5 (양재동) 1층
8UZ5SM,37.4863355,127.0381157,도곡분식_QR,06269) 서울특별시 강남구 남부순환로363길 16 (도곡동) 1층
9NBISH,37.4839247,127.0395656,김치뚝딱,06742) 서울특별시 서초구 강남대로34길 68 (양재동) 1층
E89VLV,37.4855843,127.0372643,이삭토스트(양재역점),"06268) 서울특별시 강남구 남부순환로361길 7 리치원룸텔 1층 101호(도곡동, 리치원룸텔)) "
JOIKDZ,37.4888992,127.0330359,예당_QR,06258) 서울특별시 강남구 도곡로2길 12 (도곡동) 1층
SHFRFF,37.4864463,127.035767,다락방(GARRET)_QR,06266) 서울특별시 강남구 강남대로44길 27 (도곡동) 1층
VACCI3,37.4862672,127.0377551,꿍닭꿍닭_QR,06268) 서울특별시 강남구 남부순환로363길 15 (도곡동) 1층
A8B4JL,37.2870332,127.0578018,인더비엣(광교엘포트점)_QR,16508) 경기도 수원시 영통구 광교중앙로 145 (이의동) 지하1층
OU7A2E,37.2854331,127.0599193,써브웨이(광교엘포트점),16508) 경기도 수원시 영통구 광교중앙로 145 광교엘포트 아이파크 1층 
VHNY8O,37.2876089,127.0570021,명백집(광교점),16508) 경기도 수원시 영통구 도청로18번길 26 (이의동) 1동 1층 105호
O6LSRZ,37.4812801,126.7779168,원트커피,"14715) 경기도 부천시 소사구 경인로206번길 49 (심곡본동, 오성드림빌) 1층 101호 "
JL2OHB,37.3781212,127.1123249,정샤브,13595) 경기도 성남시 분당구 황새울로214번길 8 1층 110호 
BPR6M5,37.5745347,127.002675,소담면가,03129) 서울특별시 종로구 대학로 15 (효제동) 1층(효제동) 
3H8EYA,37.5729218,126.9692683,도토리브라더스,03176) 서울특별시 종로구 경희궁길 41 (신문로2가) 1층
7PZ4ZB,37.401288,127.1104439,더벤티(판교하이펙스점),13493) 경기 성남시 분당구 판교역로 230 B동 1층 109호 
FW9FSX,37.4040238,127.1000896,려원쭈꾸미볶음,13486) 경기도 성남시 분당구 판교로255번길 9-22 (삼평동) 지하1층
LILL0I,37.5110809,127.1141187,방이부대,05641) 서울특별시 송파구 오금로19길 16 1층 101호(방이동)
NHUQ1S,37.563081,126.9752063,서평옥(씨티스퀘어점),04514) 서울특별시 중구 서소문로 124 (서소문동) 지하B104-2호 
PJN3EN,37.5728685,126.9709603,고가빈 커리하우스,03175) 서울특별시 종로구 경희궁2길 7 (내수동) 3층(내수동)
U0MM0X,37.4008747,126.9691415,매머드익스프레스(안양금강펜테리움IT타워점),"14056) 경기도 안양시 동안구 학의로 282, 1층 117호 "
WXQJCJ,37.5603058,126.9719912,컴포즈커피(순화점),"04511) 서울특별시 중구 칠패로 27 1층 109호(순화동, 순화동더샵) "
ZX3T3K,37.400662,127.1066111,더피크닉,13494) 경기도 성남시 분당구 대왕판교로 660 (삼평동) A동 130호
UOPRLA,36.8324377,127.1478944,뉴욕핫도그앤커피(천안 메가박스점)_QR,31104) 충청남도 천안시 서북구 1공단1길 52 (두정동) 센트하임프라자 330호 
FRVIIP,37.509049,127.0242165,영동곰탕,"06114) 서울특별시 강남구 강남대로124길 20 (논현동) B01호(논현동,남경빌딩)"
SELF_V6G43L,37.4873529,127.0084178,진주청국장,"06657) 서울특별시 서초구 반포대로21길 27 (서초동, 화원그랑빌 아파트) 화원아파트상가 109호 진주청국장 "
TFT0JI,37.3953213,127.1091662,디저트39(판교알파돔점),"13530) 경기도 성남시 분당구 대왕판교로606번길 10 (백현동, 알파리움1단지) 타워1동 2층 228호"
V3UZ8T,37.5392212,127.0618426,삼하루_QR,04786) 서울특별시 성동구 뚝섬로15길 29-1 (성수동2가) 1층
YWKJXS,37.5640076,126.9908576,진작(을지로본점),04555) 서울특별시 중구 수표로12길 12 (저동2가) 1층 
6LWPP4,37.5218307,126.9256238,을지다락(여의도점),07328) 서울특별시 영등포구 여의나루로 50 (여의도동) 지하1층 11호 
B12AM5,37.5637424,126.9914282,을지다락(을지로점),04555) 서울특별시 중구 수표로10길 19 (초동) 4층 
0HGJCP,37.4949423,127.0274263,무삥과 팟타이(강남점),"06621) 서울특별시 서초구 서초대로74길 29 (서초동, 서초파라곤) 2층"
50SAGB,37.4037706,127.0997462,려원쭈꾸미볶음,13486) 경기도 성남시 분당구 판교로255번길 9-22 (삼평동) 지하 1층
8DAEFN,36.1388063,128.4185322,뚜레쥬르(구미옥계점),39181) 경상북도 구미시 옥계북로 9 1층 102호 뚜레쥬르 구미옥계 경북 구미시 옥계북로 9 1층 102호 
CQR121,37.4964198,127.0291949,마라공방(강남역점),06241) 서울특별시 강남구 강남대로84길 6 (역삼동) 2층(역삼동)
GMBQ1V,37.4954402,127.0275937,돈카춘(엔와이코퍼레이션)_QR,06621) 서울특별시 서초구 강남대로55길 9-7 (서초동) 2층
KA7ZXB,37.4948619,127.0303579,프로티너(강남역점)_KIOSK,06242) 서울 강남구 가남대로78길 12 지상 1층 101호 
VZESRA,37.4949996,127.0280003,옥소반(강남역점),06621) 서울특별시 서초구 서초대로78길 32 (서초동) 2층
Z6J53D,37.4952088,127.0301858,우나기정_QR,"06241) 서울특별시 강남구 테헤란로4길 46 (역삼동, 쌍용플래티넘밸류) 1층"
2GWHIN,37.5704585,126.9798503,완백부대찌개 고사리꽃삼겹(종로르메이에르점),03157) 서울특별시 종로구 종로 19 (종로1가) 2층 
7IPD81,37.5688355,127.0087117,두타몰(본우리반상),04563) 서울특별시 중구 장충단로 275 (을지로6가) 지하 2층
ULY2W6,37.5297948,126.9244922,카레와돈까스,"07241) 서울특별시 영등포구 은행로 54 (여의도동) 지하 105호, 106호"
UXSQ4V,37.4976604,127.0295391,봄카츠(강남본점),06232) 서울특별시 강남구 테헤란로4길 6 (역삼동) B124호
NIKMKX,37.5144857,127.0654791,숑숑돈가스(서울대웅제약점),06170) 서울특별시 강남구 봉은사로114길 12 (삼성동) 지하1층 3호 
OD_OTNSQZE,37.5144857,127.0654791,쑝쑝돈까스 서울대웅제약점(오더),"06170) 서울특별시 강남구 봉은사로114길 12 지하1층 3호, 쑝쑝돈까스 "
1ABANV,37.4986092,127.0280961,포490 베트남쌀국수_QR,06134) 서울특별시 강남구 테헤란로 101 (역삼동) 지하 1층
KULFFZ,37.4976604,127.0295391,마룬브레드,06232) 서울특별시 강남구 테헤란로4길 6 (역삼동) 지하 1층
D0IIIR,37.4012839,127.1086461,지티에스버거(판교점),"13494) 경기도 성남시 분당구 판교역로 231 (삼평동) 지하1층 B117호(삼평동, 에이치스퀘어 S동) "
YZBYH8,37.4030477,127.099337,브라운버터_QR,13486) 경기도 성남시 분당구 판교로227번길 6 (삼평동) 1층 
BSFUKZ,37.3391846,127.1098222,손정보쌈(분당오리역점),"13637) 경기도 성남시 분당구 구미로9번길 13-7 1충 103,104호 "
RMWFYN,37.4459315,126.8855006,동막정담 본점,"14316) 경기 광명시 소하로109번길 15 소하동 1층 107, 108호 "
N9G81K,37.4776612,127.1229416,매머드익스프레스(가든파이브웍스점),"05839) 서울시 송파구 충민로 52, BF1074호(문정동,가든파이브웍스)"
Q67BR2,37.5327068,126.9589444,이루아,04372) 서울특별시 용산구 청파로 74 (한강로3가) 본관 1층 C-143호
5HOIKV,37.4114441,127.0963892,백소정(판교제2테크노밸리점)_KIOSK,"13449) 경기도 성남시 수정구 창업로 43 ,1층 A-105호(시흥동,판교글로벌비즈센터) "
PR82BW,37.4896715,127.0075885,아이케이부오노,"06656) 서울특별시 서초구 반포대로27길 13 (서초동, 서초꽃마을 주얼리) 2층 207호(서초동,서초꽃마을주얼리) "
SB924H,37.5635957,126.8277325,정성순대(마곡코엑스점),07797) 서울특별시 강서구 마곡중앙로 143 (마곡동) 지하 2층 
PZH_8265,37.3096345,126.9847745,피자헛(수원정자SK점),16336) 경기도 수원시 장안구 이목로 24-3 (정자동) 스카이프라자 1층118호
ZALNCS,37.5688355,127.0087117,두타몰(신룽푸마라탕),04563) 서울특별시 중구 장충단로 275 두산타워빌딩
327XNW,37.3770103,127.11273,옥된장(분당수내점),"13595) 경기도 성남시 분당구 백현로101번길 16 (수내동) 1층 104호, 105호 "
1PSHKJ,37.4120158,126.9844876,고옴탱,13840) 경기도 과천시 과천대로7나길 60 (갈현동) B1층 002호 
6GJREV,37.4039538,126.9785931,신의주 순대국밥,"13840) 경기도 과천시 과천대로7길65 113호, 114호 "
7GNPI9,37.416181,126.9855646,오레노카츠(과천정보타운점),13840) 경기도 과천시 과천대로7가길 20 (갈현동) 101호 일부 
C07CGR,37.4141585,126.9791373,삼등집,"13840) 경기도 과천시 과천대로7길 20 (갈현동) A동 129, 130호"
CNA58A,37.416181,126.9855646,반포식스(과천지식정보타운점),13840) 경기도 과천시 과천대로7가길 20 (갈현동) 103호 일부 
G1YYF1,37.4139995,126.9806293,바르다김선생(과천지식정보타운점),13840) 경기도 과천시 과천대로7가길20 (갈현동) 102호 일부 
GP5VFB,37.4120158,126.9844876,정통삼계탕,13840) 경기도 과천시 과천대로7나길 60 (갈현동) B006호 
06I3J5,37.4010213,127.1073722,레드포테이토,"13494) 경기도 성남시 분당구 대왕판교로 660 비동 4층 401호(삼평동, 유스페이스1) "
DQOFA1,37.4006942,127.1069886,제철생선,"13494) 경기도 성남시 분당구 대왕판교로 660 비동 4층 401호(삼평동, 유스페이스1) "
NAS2TR,37.4006942,127.1069886,지콤마 카페,"13494) 경기도 성남시 분당구 대왕판교로 660 지하1층 비103, 비104, 비 105호 (삼평동 유스페이스1) "
XHVAO1,37.4006942,127.1069886,함박엔피자,"13494) 경기도 성남시 분당구 대왕판교로 660 비동 4층 401호(삼평동, 유스페이스1) "
VOZZ1M,37.5751109,127.0029349,어스샌드위치(종로5가점),03129) 서울특별시 종로구 대학로 3 (효제동) 1층(효제동) 
LWISGC,37.3319722,127.1212082,오토김밥(죽전점),16875) 경기도 용인시 수지구 현암로 107 (죽전동) 1층 
3VF6RK,33.4886157,126.4812923,순수덮밥,63098) 제주특별자치도 제주시 다랑곶길 34 (노형동) 1층 
530ZVW,37.407414,127.0895554,메가MGC커피(판교위너스점),13453) 경기도 성남시 수정구 금토로80번길 51 (금토동) 메가엠지씨커피 판교위너스점 
HAB24F,37.5146998,126.8999652,육전한우국밥,07299) 서울 영등포구 경인로 775 지층 B-180호 
BM4GVH,37.5512998,127.0464411,조양식당,"04788) 서울특별시 성동구 광나루로 144 1층 111호(성수동1가, 더스페이스타워)"
IQY4UX,37.4012839,127.1086461,감성커피(판교H스퀘어점),13494) 경기도 성남시 분당구 판교역로 231 (삼평동) 1층 
M2TQVW,37.4856902,127.0037927,마오,"06660) 서울특별시 서초구 명달로 93 (서초동)  1~2층(서초동, 메트로빌딩) "
SELF_E2JPLM,37.4900127,127.0138207,설반(교대점),06650) 서울특별시 서초구 서초대로46길 106 (서초동) 2층 설반 
SELF_N1AKNW,37.5322414,127.1413612,자이언트 포케&샐러드,05364) 서울특별시 강동구 진황도로 154 (둔촌동) 1층 자이언트샐러드 
SELF_VERUCL,37.4006942,127.1069886,바이브커피,13494) 경기도 성남시 분당구 대왕판교로 670 (삼평동) 110호 
XM5KGO,37.3938154,127.1083768,돈몽,"13530) 경기도 성남시 분당구 판교역로 145 (백현동, 알파리움2단지) 타워2동 106호, 107호 "
LF25I4,37.5103229,126.7842602,대성반점_QR,14524) 경기도 부천시 원미구 부천로 295 (도당동) 1층 
ADDGFE,37.5673583,126.9851356,슬로우캘리(을지로점),04539) 서울특별시 중구 을지로5길 26 미래에셋 CENTER 1 
31ZQK0,37.5718225,127.0005257,오제도바,03129) 서울특별시 종로구 대학로1길31 1층(종로5가) 
J2QTQN,37.515798,127.0305802,미가한우.치킨처럼,06052) 서울특별시 강남구 논현로136길 6 (논현동) 1층 
RWIY26,37.5741061,127.0015406,오사카우동(종로점),03128) 서울특별시 종로구 대학로3길 12 (효제동) 지하1층(효제동) 
SELF_O09S18,37.4928592,127.0153258,춘보만두(서초교대점),"06634) 서울특별시 서초구 서초중앙로22길22-7 102호, 춘보만두 서초교대점 "
UK6JRU,37.5718225,127.0005257,오제도 카페,"03129) 서울특별시 종로구 대학로1길31 1층(종로5가,좌측건물) "
VETR8U,37.4891142,127.0079814,최고야 해물짬뽕,06656) 서울특별시 서초구 반포대로23길 14 (서초동) 1층 103호(서초동) 
SELF_IQBPFI,37.3972827,127.1135331,비니투스판교,"13525) 경기도 성남시 분당구 동판교로177번길 25 (삼평동, 판교 호반 써밋 플레이스) 230호 "
K4QLA5,37.4834397,126.7653174,한촌설렁탕(부천본점),14727) 경기도 부천시 소사구 경인로 92 (송내동) 1층 
PARIS_10791,37.4835541,126.7639682,파리바게뜨(중동역남부),14727) 경기도 부천시 경인로 78 파리바게뜨(중동역남부) 
PARIS_22969,37.4882133,126.7657328,파리바게뜨(중동역북부점),14626) 경기도 부천시 부일로 322 파리바게뜨 
VT6MTT,37.4842868,126.7689415,큰맘할매순대국(송내점)_QR,14723) 경기도 부천시 소사구 경인로 121 (송내동) 1층 
11V4GX,37.4839461,126.7626371,조마루감자탕(중동남부점)_QR,14721) 경기도 부천시 소사구 경인로 65 (송내동) 1층 
VU9B66,37.4837429,126.7678524,조마루감자탕(중동남부2호점)_QR,14727) 경기도 부천시 소사구 경인로 112 (송내동) 1층 
9H93CO,37.4834582,126.762595,스텔라떡볶이(경기부천송내점)_QR,14728) 경기도 부천시 소사구 경인로 66 (송내동) 1층 
BFF3T8,37.4843401,126.7642428,본죽&비빔밥cafe(중동역점),14722) 경기도 부천시 소사구 중동로 48 (송내동) 1층 
W2XSOH,37.4839907,126.7612347,백만불 돈까스&냉면_QR,14729) 경기도 부천시 소사구 경인로53번길 7 (송내동) 1층 
SADHFN,37.4881348,126.7657869,맘스터치(중동역점),14626) 경기도 부천시 원미구 부일로 322 1층 
FWSQGE,37.4843401,126.7642428,뉴욕버거(부천중동역점)_KIOSK,14722) 경기 부천시 중동로 48 대우프라자 1층 107호 
42AL1A,37.4833758,126.7688494,김밥천국(송내점)_QR,14726) 경기도 부천시 소사구 경인로 120 (송내동) 1층 
1M2YGL,37.574115,126.9743671,청담원_QR,"03170) 서울특별시 종로구 사직로 130 (적선동) 지하1층 32호(적선동,현대아케이트)"
401G8M,37.4847683,126.9951753,북촌순두부앤쭈꾸미,06682) 서울특별시 서초구 방배로 119-1 (방배동) 1층 
IF8WQV,37.5327068,126.9589444,델리뉴스(용산전자랜드점),04372) 서울특별시 용산구 청파로 74 (한강로3가) 전자랜드 본관 4층
JLMR2Y,37.5338747,126.9618896,신용산_QR,04366) 서울특별시 용산구 새창로44길 11 (신계동) 1층
S6HBNK,37.5050809,127.0535226,파머스빈,"06194) 서울특별시 강남구 선릉로90길 56 (대치동, 대치동 대우아이빌명문가) 1층 108호(대치동,대치동대우아이빌명문가) "
SS78M5,37.5392867,127.0619548,마미리마켓,04786) 서울특별시 성동구 연무장18길 16 (성수동2가) 1~2층(성수동2가)
VLDF5W,37.5327068,126.9589444,미다래,04372) 서울특별시 용산구 청파로 74 (한강로3가) 6층
4PIA25,37.4856973,127.0369362,콩부자 전주콩나물국밥(양재역점),"06268) 서울특별시 강남구 남부순환로359길 8 (도곡동) , 1층(도곡동) "
5MCOYW,37.4853089,127.0344036,(주)금강수림,06267) 서울특별시 강남구 강남대로 240 (도곡동) 지하 2층 
HQ07SO,37.4970267,127.0297692,국밥쟁이,"06232) 서울특별시 강남구 강남대로84길 15 (역삼동) 지하1층 B101,102호 "
SELF_EZPI7O,37.3975108,127.1120412,막창막장,13494) 경기도 성남시 분당구 대왕판교로 660 (삼평동) 2층234호 
1QUADE,37.4815861,126.8973483,한우마당(늘푸른점),08393) 서울특별시 구로구 디지털로26길 98 (구로동) 2층 
R6VZZK,37.4037706,127.0997462,블루샥(판교우림W시티점),13486) 경기도 성남시 분당구 판교로255번길 9-22 (삼평동) 1층
V9EA6E,37.4040238,127.1000896,감성커피(판교우림W시티점),13486) 경기도 성남시 분당구 판교로255번길 9-22 (삼평동) 1층
QLYETL,37.5685809,126.8276974,공차(마곡나루점),07788) 서울특별시 강서구 마곡중앙로 165 안강프라이빗타워
INQ0BS,37.5037436,127.0402455,"포레스트오늘,숲(강남역삼점)",06139) 서울특별시 강남구 테헤란로37길 23 (역삼동) 역삼동 지상1층 
ORP8A0,37.4855795,127.0359805,육회바른연어(양재비엔피점)_QR,06267) 서울특별시 강남구 강남대로42길 23 (도곡동) 1층 
VLKXYC,37.4855463,127.0351487,잰부닥,06267) 서울특별시 강남구 강남대로42길 13 (도곡동) 1층 
R66890,37.4851013,127.035744,아리노 마마,"06267) 서울특별시 강남구 남부순환로 2615 (도곡동, 극동스타클래스) 1층 "
V1EFUT,37.4849593,127.0314157,양재순대_QR,06734) 서울특별시 서초구 강남대로37길 38 (서초동) 1층 
VE2R73,37.4866817,127.0390387,어머니집,06269) 서울특별시 강남구 남부순환로365길 17 (도곡동) 1층 
XIOJ83,37.4861787,127.0364702,스파게티스토리,06268) 서울특별시 강남구 남부순환로359길 20 (도곡동) 1층 
QYFA6W,37.4864265,127.0381543,샐러디치 오도씨 강남1호점,06269) 서울특별시 강남구 남부순환로363길 16 (도곡동) 지상1층 103호(도곡동) 
S7OS30,37.485629,127.0370664,본죽엔비빕밥(양재은광여고점),"06268) 서울특별시 강남구 남부순환로361길 9 (도곡동, 천성빌딩) 1층(도곡동,천성빌딩) "
XKYEWB,37.4835491,127.0374681,미몽(양재역점)_POS,06737) 서울시 서초구 양재동  11-76 1층 양재동 
XDKJA6,37.4886523,127.0340913,두두,06258) 서울특별시 강남구 도곡로4길 24 (도곡동) 1층 
SW0XYE,37.4860233,127.036591,돈까스 하우스,06268) 서울특별시 강남구 남부순환로359길 16 (도곡동) 1층
4QERGN,37.4121191,127.0975819,이디야(판교파미어스몰점),13449) 경기도 성남시 수정구 창업로 17 C2블록 B1층 B103-2호 
ZBWLLX,37.4115908,127.0959826,이에스에프피(ESFP)_QR,13449) 경기도 성남시 수정구 창업로 43 (시흥동) A동 1층 101호 
G11OUO,37.5372338,127.1319678,제주스 이스트센트럴타워점,"05340) 서울특별시 강동구 천호대로 1077 (천호동, 래미안강동팰리스) 이스턴스퀘어동 지1층 101호(천호동,래미안강동팰리스) "
SELF_516TML,37.4970267,127.0297692,연남해장국,06232) 서울특별시 강남구 강남대로84길 15 (역삼동) 지하1층 
SELF_5ZYIR8,37.4970267,127.0297692,범수산,06232) 서울특별시 강남구 강남대로84길 15 (역삼동) 지하 1층 126호 범수산 
XL777O,37.4970267,127.0297692,강남 힘찬장어,"06232) 서울특별시 강남구 강남대로84길 15 (역삼동) 지하1층 119호, 120호 "
M6XK8J,37.5386244,127.1341773,온유나베,"05338) 서울특별시 강동구 진황도로31길 26 (천호동, 성원아파트) 1층 상가 103호 "
L9OA2M,37.4859364,127.0366641,히노카츠,06268) 서울특별시 강남구 남부순환로359길 14 (도곡동) 1층 
88NUYN,37.4851647,127.0316331,탐라순대국감자탕(양재역직영점),"06734) 서울특별시 서초구 남부순환로347길 19 (서초동) 1층, 2층 "
G6EH9N,37.4868306,127.0355248,작은공간,06266) 서울특별시 강남구 남부순환로359길 31 (도곡동) 1층 
HK3R35,37.4845443,127.0305572,전주콩나루콩나물국밥_QR,06734) 서울특별시 서초구 강남대로37길 55-3 1층 
2SXD5D,37.4857133,127.0368076,우지커피 양재역점,06268) 서울특별시 강남구 남부순환로359길 10 (도곡동) 지상1층(도곡동) 
3BOP64,37.4863594,127.0359751,유라노스강남_QR,06267) 서울특별시 강남구 강남대로44길 28 (도곡동) 1층
EOMD36,37.4857017,127.037528,영영샐러드(도곡점)_QR,06268) 서울특별시 강남구 남부순환로361길 6 (도곡동) 1층4호(도곡동) 
H247HM,37.4858308,127.0341712,육관소(양재역본점),06266) 서울특별시 강남구 강남대로44길 7 (도곡동) 1층 
DCSFRG,37.4851013,127.035744,양계옥,"06267) 서울특별시 강남구 남부순환로 2615 (도곡동, 극동스타클래스) 1층 "
G602GM,37.4854832,127.0349171,양재화로by설화한우,06267) 서울특별시 강남구 강남대로42길 11 (도곡동) 1층 
8U1EAY,37.4857017,127.037528,식겁라면,06268) 서울특별시 강남구 남부순환로361길 6 (도곡동) 1층2호(도곡동) 
1JGCW5,37.4832384,127.0384778,삼산회관(양재역점)_POS,06742) 서울특별시 서초구 남부순환로356길 39 1층 101호 
4LXCDW,37.4829122,127.0350302,맥도날드(양재점),06749) 서울특별시 서초구 강남대로 213 (양재동) 맥도날드(양재) 
KNPIQ3,37.4859364,127.0366641,미트앤샐러드(엠아이티디),06268) 서울특별시 강남구 남부순환로359길 14 (도곡동) 1층 
HN4MIH,37.4853089,127.0344036,곱창왕김형제(양재점),06267) 서울특별시 강남구 강남대로 240 (도곡동) 1층 
IHRT1G,37.4844752,127.0366578,공차(양재역점),"06737) 서울특별시 서초구 남부순환로 2614 102호(양재동, 한솔로이젠트) "
ECWV0M,37.4858738,127.0364174,강남쌀국수(양재점),"06267) 서울특별시 강남구 남부순환로359길 13 (도곡동, 도곡동 955-7 근생도시형생활주택) 1층 "
SB_3604,37.4853306,127.0366142,스타벅스(양재강남빌딩R점),06267) 서울특별시 강남구 도곡동 956 LG전자 강남R&D센터 
P5ORQF,37.4843158,127.0351933,KFC(양재동점),06736) 서울특별시 서초구 남부순환로350길 4 대진빌딩 
0EPGN3,37.3777866,127.1118045,면계옥(수내본점),13595) 경기도 성남시 분당구 황새울로200번길 9-7 (수내동) 1층 101-2호 
37LX2W,37.37748,127.1125095,탄탄면공방(분당수내점),13595) 경기도 성남시 분당구 백현로101번길 17 (수내동) 1층 105호 
732JWQ,37.3975108,127.1120412,차엔 프리미엄,"13494) 경기도 성남시 분당구 대왕판교로 660 (삼평동) 지하1층 비104,105호(삼평동,유스페이스1) "
93UO2D,37.3777103,127.1128866,써브웨이(분당수내점),13595) 경기도 성남시 분당구 백현로101번길 21 (수내동) 1층 써브웨이 
HB6E5Q,37.564946,126.914386,숯돌이네돼지_QR,03939) 서울특별시 마포구 월드컵로36길 40 (성산동) 1층 5호(성산동)
HICY9T,37.4020702,127.1104411,롱웨이브커피_KIOSK,"13493) 경기도 성남시 분당구 판교역로 240 , 삼환하이펙스A동 1층 114호"
J92BGR,37.3801791,127.1162752,왓더버거(수내역점),13595) 경기도 성남시 분당구 황새울로258번길 10-7 (수내동) 1층 106호 
LZXA2S,37.5144857,127.0654791,타코볼볼(대웅제약점),06170) 서울특별시 강남구 봉은사로114길 12 (삼성동) B1층 01호 
OD_O30P71G,37.5144857,127.0654791,타코볼볼(대웅제약점)(오더),"06170) 서울특별시 강남구 봉은사로114길 12 (삼성동) B1층,01호 "
PN9N6I,37.3822668,127.2338414,선비꼬마김밥(경기광주1호점),12789) 경기도 광주시 태전동2길 4 (태전동) 1층 3호 
Z06SPU,37.5183912,127.0205405,신사 낭낙,06034) 서울특별시 강남구 강남대로156길 17 (신사동) 1층 
H72PHS,37.5191802,126.7624008,장모님순두부_QR,"14501) 경기도 부천시 오정구 삼작로 22 (삼정동) , 100-110(삼정동,부천테크노파크) "
BZV3W5,37.518658,126.764717,현아네집밥_QR,"14501) 경기 부천시 석천로 345 부대동 2층 205호(삼정동,부천테크노파크) "
QTRDJJ,37.4037875,127.0999418,스시가오,13486) 경기도 성남시 분당구 판교로255번길 9-22 (삼평동) 2층 
F8V1E9,37.5744291,126.9735649,광화문추어탕,"03170) 서울특별시 종로구 새문안로5가길 28 (적선동) 지하101,102,106 "
2UT13T,37.5147169,127.0184908,옥된장(신사역점),06526) 서울특별시 서초구 강남대로99길 23-9 (잠원동) 1층 
BXYMCG,37.5601421,126.9829442,오한수우육면가(명동점),04631) 서울특별시 중구 퇴계로 100 (회현동2가) 스테이트타워 남산 지하1층 B104호 
KAZR80,37.5582581,126.9819219,써브웨이(회현점),"04632) 서울특별시 중구 소공로 35 (회현동1가, 남산 롯데캐슬) 1층 101호 "
F96FT9,37.5595198,126.9860193,삼미옥,04629) 서울특별시 중구 퇴계로20가길 6 (남산동2가) 1층 
40F6LC,37.5104341,127.0556671,등촌샤브칼국수(삼성점),06166) 서울특별시 강남구 테헤란로81길 51 (삼성동) 2층 
NMZJ9H,37.5585036,126.9806853,남문아바이 왕순대탕(회현본점)_QR,04634) 서울특별시 중구 퇴계로10길 22-1 (회현동1가) 1층 
3PQ1EG,37.5052839,127.0501067,(주)파지티브호텔 키친 선릉,06162) 서울특별시 강남구 테헤란로 407 (삼성동) 1층 
74NB5Y,37.5674524,127.0097942,청담이 수육애 칼국수,"04566) 서울특별시 중구 을지로 281 지2층 D7호(을지로7가, DDP마켓) "
SELF_MMAEEJ,37.5029732,127.0465325,두꺼비 김밥_QR,06211) 서울특별시 강남구 테헤란로 322 (역삼동) 지하2층 B101호 
7ZR7SE,37.5657456,126.9885778,콜렉티보(을지로파인에비뉴점),04551) 서울특별시 중구 을지로 100 (을지로2가) 파인에비뉴 B동 1층 
SELF_NMK77G,37.4869342,127.0089685,콰이어커피_QR,06670) 서울특별시 서초구 반포대로19길 9-7 (서초동) 1층 
SELF_ZLBXSN,37.5303432,126.8936473,크록버거(선유로직영점),07218) 서울특별시 영등포구 선유로 190 (양평동3가) 크록버거 선유로점
RRCNLA,37.4918632,127.0087794,멘노아지,"06647) 서울특별시 서초구 서초대로 248 (서초동) , 1층 제 104호(서초동) "
Q955WK,37.5630463,126.9751722,고래카레,"04514) 서울특별시 중구 서소문로 124 (서소문동) , B1층(서소문동, 씨티스퀘어) "
SELF_NJ5QO4,37.5656965,126.9032843,고기식당 도야지 ,03938) 서울특별시 마포구 모래내로1길 20 (성산동) 2층 고기식당 도야지 
TVVARB,37.4006942,127.1069886,깡우동(판교유스페이스점) ,"13494) 경기도 성남시 분당구 대왕판교로 670 (삼평동) 1층 127호(삼평동,유스페이스2) "
ZHKNTX,37.5656965,126.9032843,고기식당 도야지_QR,03938) 서울특별시 마포구 모래내로1길 20 (성산동) 2층 
AZNU1P,37.5713896,127.0061483,명인설렁탕(광장시장점),03195) 서울특별시 종로구 종로 210 (종로5가) 2층 
BGY8SU,37.5723286,127.0004484,그라츠커피랩(종로점)_QR,03129) 서울특별시 종로구 대학로1길 34-11 (연지동)  1층 
8A9IH5,37.5303432,126.8936473,(주)크록버거(선유로직영점),07218) 서울특별시 영등포구 선유로 190 (양평동3가) 1층 (양평동3가) 
1Y8LUN,37.5425289,127.0592605,정든식당,04783) 서울특별시 성동구 연무장15길 11 (성수동2가) 2층 
3NODZQ,37.5426328,127.0520902,서울왕돈까스(성수점)_QR,04781) 서울특별시 성동구 성수일로4길 25 (성수동2가)  코오롱디지털타워1차 104-1호 
SELF_J7NIT1,37.4037875,127.0999418,버터루_QR,13486) 경기도 성남시 분당구 판교로255번길 9-22 (삼평동) 126호 버터루 
SELF_JNV3GT,37.3763761,127.1127697,다께야(수내역점),13595) 경기도 성남시 분당구 황새울로200번길 22 (수내동) 1층 
VV3J2V,37.509821,127.1136075,장수본가해장국(송파나루역점),05641) 서울특별시 송파구 오금로 167 (방이동) 1층(방이동) 
JBV210,37.401288,127.1104439,하동곰탕(화수분),13493) 경기도 성남시 분당구 판교역로 230 (삼평동) 지하 1층 
CLIVRQ,37.5363742,127.1364515,인심숯불돼지집,"05354) 서울특별시 강동구 진황도로 87 (길동, 청광플러스원큐브3차) , 1층 104~105호(길동,청광플러스원큐브3차) "
SELF_PDRPRO,37.4950134,127.1204127,양궈푸마라탕(가락점 ),"05718) 서울특별시 송파구 송파대로28길 27 (가락동, 송파 성원상떼빌) 102동119호 "
U7GOYY,37.3942057,127.108998,차고145,"13530) 경기 성남시 분당구 판교역로 145 백현동, 알파리움2단지 1층 108호 "
6KF0NP,37.5016372,127.0268917,킹케밥(강남점)_QR,"06129) 서울특별시 강남구 강남대로100길 10 (역삼동) , 지상1층 102호(역삼동) "
ZHKT3J,37.5636042,126.8278425,주식회사 오제제(마곡코엑스점),"07797) 서울특별시 강서구 마곡중앙로 143 (마곡동) , 지하2층 220호(마곡동) "
3DEDAM,37.483678,126.8954192,돈까스 브로스,08390) 서울특별시 구로구 디지털로 288 (구로동) 지1층 B117호 
5MLDKV,37.515798,127.0305802,미가한우.치킨처럼_QR,06052) 서울특별시 강남구 논현로136길 6 (논현동) 1층
7TYDY4,37.5040938,127.0536392,최순옥명품국밥(선릉점),06197) 서울특별시 강남구 선릉로86길 48 (대치동) 1층 
BGR0JD,37.4928895,127.0084849,서초 정계,06595) 서울특별시 서초구 법원로1길 20 (서초동) 1층
K4N302,37.3943999,127.1083521,엘까르니따스(판교점),"13530) 경기도 성남시 분당구 판교역로 145 (백현동, 알파리움2단지) 라스트리트 2동 2층"
WJ2HMK,37.4037875,127.0999418,돈까스에 미친 김밥,13486) 경기도 성남시 분당구 판교로255번길 9-22 (삼평동) 1층 
SELF_OFPT5P,37.4006942,127.1069886,커스텀커피(삼평동점),13494) 경기도 성남시 분당구 대왕판교로 670 (삼평동) B동 121호 
8SB0D4,37.5189944,126.7640725,매머드익스프레스(부천테크노파크),"14501) 경기도 부천시 석천로 345, 부대동 110호 "
A3DOX1,37.574115,126.9743671,청담원,"03170) 서울특별시 종로구 사직로 지하130 (적선동) 지하1층 32호(적선동,현대아케이트) "
DVGG3C,37.5189845,126.7624115,김명자굴국밥전문점(부천점),14501) 경기도 부천시 오정구 삼작로 22 (삼정동) 2층 
KFCCQ6,37.4012839,127.1086461,규카츠정(판교점)_QR,"13494) 경기도 성남시 분당구 판교역로 231 (삼평동) 1층 115호(삼평동, 에이치스퀘어 에스동) "
LR29O2,37.5721391,126.9993564,호앙비엣(종로5가점),03130) 서울특별시 종로구 종로31길 29 (인의동) 1층(인의동) 
SELF_HG9CBH,37.4895816,127.0075585,아이케이부오노 ,"06656) 서울특별시 서초구 반포대로27길 13 (서초동, 서초꽃마을 주얼리) 2층 아이케이부오노 "
SELF_XARWUI,37.3400457,127.1069711,랑데자뷰(오리점),"13636) 경기도 성남시 분당구 탄천상로151번길 20 (구미동) 20, 1층 랑데자뷰"
SPXLQ8,37.5191802,126.7624008,빽다방(부천테크노파크점),"14501) 경기 부천시 오정구 삼작로 22 100동 101호(삼정동,부천테크노파크) "
X8FQJH,37.5140521,126.7712996,우정식당_QR,14501) 경기도 부천시 오정구 석천로 345 (삼정동) 1층 
XDJV18,37.5140521,126.7712996,비에뜨반미(약대점)_QR,14500) 경기도 부천시 원미구 평천로669번길 11 (약대동) 1
SELF_07Y7UE,37.4012839,127.1086461,예술 작품을 빚다 비즐 ,13494) 경기도 성남시 분당구 판교역로 231 (삼평동) H스퀘어 S동 1층 126호 
350RV1,35.1416819,126.9220315,본우리집밥(전남대병원 푸드코트)_KIOSK,"61469) 광주광역시 동구 제봉로 42 (학동) , 응급의료센터 지하1층(학동, 전남대학교병원) "
Q4P6C9,37.4894308,127.007148,쎄종드파이_QR,06656) 서울특별시 서초구 서초대로40길 48-16 (서초동) 1층 
PAANB9,37.5364134,127.1332457,매머드익스프레스(강동역점),"05339) 서울특별시 강동구 천호대로 1089, 지하층 B31호 "
C02XZA,37.3966822,127.1106766,우슴(판교점),"13524) 경기도 성남시 분당구 대왕판교로606번길 31 (삼평동) 105,106,107호 "
K45OTL,37.5656514,126.9912643,바스버거(을지로점),04550) 서울특별시 중구 을지로12길 11 (을지로3가) 지하층 10호 
SELF_9RIRR4,37.5172698,126.8957152,강창구찹쌀진순대 영등포에이스하이테크시티점,07299) 서울특별시 영등포구 경인로 775 (문래동3가) b127 
SELF_SUEOUR,37.5676575,126.8256375,버거리(마곡나루역점),07788) 서울특별시 강서구 마곡서로152 A동 114호 
IU06MO,37.4858748,127.0363871,에스타미네 스탠드_QR,"06267) 서울특별시 강남구 남부순환로359길 13 (도곡동, 도곡동 955-7 근생도시형생활주택) 1층 102호(도곡동) "
S9WHA6,37.3799454,127.1168097,바름(수내역점),13595) 경기도 성남시 분당구 수내로46번길 11 (수내동) 1층 
UXL5AE,37.5671562,126.8272843,투썸플레이스(마곡나루역점),"07788) 서울특별시 강서구 마곡중앙5로 6 마곡보타닉푸르지오시티 157, 158, 239, 240호 "
8ZYLFZ,37.3867802,127.2341962,알찬냄비(태전점),12787) 경기도 광주시 태전동로 21 (태전동) 1층 114호 
ZJ22BX,37.5365254,127.1314031,밥쁘다_QR,05340) 서울특별시 강동구 천호대로 1073 (천호동) 1층 4호 
446L3U,37.5635957,126.8277325,고부대(코엑스마곡점),07797) 서울특별시 강서구 마곡중앙로 143 (마곡동) 지하2층 
OD_ODVAMMT,37.479637,126.89545,삼백집 지타워몰점(오더),08393) 서울특별시 구로구 디지털로26길 38 (구로동) G-Tower 지하2층 B33
C2RGTE,37.527054,126.9278476,은화수식당(여의도파크원점)_QR,07335) 서울특별시 영등포구 여의대로 108 (여의도동) 파크원NH금융타워(타워2)지하2층 육수당 여의도파크원점
85JFMV,37.5341729,127.1365317,오형제반점(길동사거리점)_QR,05373) 서울특별시 강동구 천호대로1128 (성내동) 108호 
26SG0Y,37.3639855,127.1063135,서혜커피_QR,13558) 경기도 성남시 분당구 정자일로156번길 6 뉴본타워 1층 
6RQXRW,37.4849747,127.031773,이삭토스트(서울_서초구청점),06734) 서울특별시 서초구 남부순환로347길 13 동흥빌딩 1층 101호 
9PH1RK,37.4865226,127.035873,신전떡볶이(도곡점),06266) 서울특별시 강남구 남부순환로359길 27 (도곡동) 1층 B호 
EXWE6L,37.5341201,126.7556816,웰빙푸드_QR,21072) 인천광역시 계양구 서운산단로 29 (서운동) 2층 
GWTFF5,37.3770103,127.11273,판교집(수내직영점),13595) 경기도 성남시 분당구 백현로101번길 16 (수내동) 1층 102호 
I5LIUD,37.4889996,127.0340804,영이네,06259) 서울특별시 강남구 도곡로4길 19 (도곡동) 1층 
J1A34H,37.486253,127.0388542,아벡제이 베이커리,06271) 서울특별시 강남구 남부순환로363길 12-10 (도곡동) 제3동 1층 
NB8PP1,37.4027741,127.1068214,진부엉이꼬마김밥,13494) 경기도 성남시 분당구 판교역로241번길 22 (삼평동) 1층 118호 
ONZAA8,37.4868306,127.0355248,오딸레,06266) 서울특별시 강남구 남부순환로359길 31 (도곡동) 1층 103호 
RQTXZM,37.4863203,127.036066,요커(양재점)_QR,06267) 서울특별시 강남구 남부순환로359길 23 (도곡동) 1층 102호 
TORL9Q,37.4851013,127.035744,죽이야기(강남양재역점),"06267) 서울 강남구 남부순환로 2615 , 127~130호(도곡동, 극동스타클래스) "
XD6OQI,37.4861643,127.0362213,국미당_QR,06267) 서울특별시 강남구 남부순환로359길 19 (도곡동) 1층 
2ZJD6H,37.3954881,127.1121146,쌉(SAAP) 판교테크원,13529) 경기도 성남시 분당구 분당내곡로 131 (백현동) 2층 
4O149U,37.5551679,127.1114168,워커힐호텔_프런트10_QR,04963) 서울특별시 광진구 워커힐로 177 (광장동) 1층 
5TVNDG,37.5551679,127.1114168,워커힐호텔_프런트9_QR,04963) 서울특별시 광진구 워커힐로 177 (광장동) 1층 
7FZP13,37.5551679,127.1114168,워커힐호텔_프런트2_QR,04963) 서울특별시 광진구 워커힐로 177 (광장동) 1층 
EBTFWG,37.5551679,127.1114168,워커힐호텔_프런트6_QR,04963) 서울특별시 광진구 워커힐로 177 (광장동) 1층 
IMLMKU,37.5551679,127.1114168,워커힐호텔_프런트5_QR,04963) 서울특별시 광진구 워커힐로 177 (광장동) 1층 
QF2C00,37.5551679,127.1114168,워커힐호텔_프런트4_QR,04963) 서울특별시 광진구 워커힐로 177 (광장동) 1층 
QS230Z,37.5551679,127.1114168,워커힐호텔_프런트7_QR,04963) 서울특별시 광진구 워커힐로 177 (광장동) 1층 
REDM9L,37.5551679,127.1114168,워커힐호텔_프런트1_QR,04963) 서울특별시 광진구 워커힐로 177 (광장동) 1층 
RHSB1L,37.5551679,127.1114168,워커힐호텔_프런트3_QR,04963) 서울특별시 광진구 워커힐로 177 (광장동) 1층 
Z18M85,37.5551679,127.1114168,워커힐호텔_프런트8_QR,04963) 서울특별시 광진구 워커힐로 177 (광장동) 1층 
5LCXWL,37.4853112,127.0318963,호앙비엣(양재역점),06735) 서울특별시 서초구 남부순환로347길 20 (서초동) 1층 
FDEKT3,37.4848792,127.0398547,장수정육식당_QR,06735) 서울특별시 서초구 남부순환로 2581-5 (서초동)  대호빌딩 
FS3B8Q,37.4863012,127.0406942,메가MGC커피(양재역점),"06267) 서울특별시 강남구 남부순환로 2615 , 지상1층 101호(도곡동, 극동스타클래스) "
KCI1PU,37.4833288,127.0348058,후토루(양재점),06749) 서울특별시 서초구 강남대로 221 (양재동) 1층 
LC22Y6,37.4834463,127.0360974,양재 샤브샤브 퀸즈가든,06736) 서울특별시 서초구 남부순환로350길 30 (양재동) 2층 
MOF3WQ,37.4838061,127.0382278,정고기_QR,06738) 서울특별시 서초구 강남대로34길 43 (양재동) 2층(양재동) 
O1ENBI,37.4839904,127.0351052,서울김밥(양재역점)_QR,"06736) 서울특별시 서초구 강남대로 224 (양재동, 양재한신휴플러스) 1층 "
TAOPPN,37.4835495,127.0379342,진여사댁_QR,06743) 서울특별시 서초구 강남대로34길 38 (양재동) 2층(양재동) 
U3QWYW,37.4853755,127.0321979,프릳츠(양재점),06735) 서울특별시 서초구 강남대로37길 24-11 (서초동) 1층 
BJR95I,37.4858513,127.0389103,개수리 막국수(강남도곡점),"06271) 서울특별시 강남구 남부순환로365길 5 (도곡동, 중명하니빌아파트) ,지상1층 116호,117호(도곡동,중명하니빌아파트) "
X4K1D2,37.4012839,127.1086461,샐러드박스(판교H스퀘어점),13494) 경기도 성남시 분당구 판교역로 231 (삼평동) S동 지하 1층 106호 
1L4LV8,37.3382141,127.1016827,홍호아(동천점) ,16827) 경기도 용인시 수지구 신수로 767 (동천동)  (동천동) A110호 
BKR_20004022,37.4953858,127.0293408,팀홀튼 (강남역대륭타워점),06241) 서울특별시 강남구 강남대로 362 대륭강남타워 1F 
KW66OZ,37.4938831,127.0313263,전주현대옥(강남대로점)_QR,06242) 서울특별시 강남구 역삼로 113 (역삼동) 1층 
M9WB0P,37.4975881,127.0302436,강남막국수&보쌈,06233) 서울특별시 강남구 테헤란로4길 13 (역삼동) 1층 
OWOBQZ,37.395519,127.1083979,판교육담,"13530) 경기도 성남시 분당구 대왕판교로606번길 10 (백현동, 알파리움1단지)  1층 105호, 106호"
TSMRSH,37.4955444,127.0282722,커피빈(강남대로점),06621) 서울특별시 서초구 강남대로 369 1층 커피빈(강남대로점) 
TXA7NC,37.496506,127.030153,커피빈(강남역랭기지타워점),06241) 서울특별시 강남구 테헤란로4길 28 826-28호 1층 커피빈(강남역랭기지타워점) 
71I9S7,37.4943184,127.0324599,대운식당,06243) 서울특별시 강남구 역삼로5길 6 (역삼동) 지상1층 101호 
2UA604,37.5397392,127.0638409,영순이네영양탕_QR,05079) 서울특별시 광진구 동일로18길 18 (자양동) 1층 
KO7YAD,37.3800471,127.1160698,엠브로돈까스(분당수내점),13595) 경기도 성남시 분당구 황새울로258번길 10-9 (수내동) 2층 201호 
PFUS4R,37.5404331,127.061562,차일디쉬_QR,04786) 서울특별시 성동구 연무장길 114 (성수동2가) 2층 
QK15VG,37.5392262,127.0618743,브루크_QR,04786) 서울특별시 성동구 뚝섬로15길 29-1 (성수동2가)  1층 
QL8ZDI,37.3799454,127.1168097,마포갈비,13595) 경기도 성남시 분당구 수내로46번길 11 (수내동) 113호 
QQLB5B,37.4836203,127.0354084,토다베이글(양재점)_QR,06734) 서울특별시 서초구 남부순환로 2567 1층
QYDVD6,37.540195,127.0632881,순대국닭곰탕집_QR,05071) 서울특별시 광진구 동일로 86 (자양동) 1층 
TT0DAJ,37.3401099,127.108152,맛있는천국,13636) 경기도 성남시 분당구 성남대로 51 (구미동) 1층 127호 
UB3Z6R,37.540197,127.0602201,떡본김에_KIOSK,04785) 서울 성동구 성수이로16길 33 2층201호
UYFORD,37.4811666,126.8953821,제이오제이엠푸드_QR,08389) 서울특별시 구로구 디지털로26길 61 (구로동) 지하 1층
RGU7VM,37.3800471,127.1160698,엠브로돈까스(분당수내점)_QR,13595) 경기도 성남시 분당구 황새울로258번길 10-9 (수내동) 2층 201호 
SELF_G85MNJ,37.3630628,127.1068064,씨티치킨앤펍,13559) 경기도 성남시 분당구 정자일로 132 (정자동) 엠코헤리츠 4단지 1층 D104호 
SELF_MLBGRI,37.3630628,127.1068064,델리쉬베이글,13559) 경기도 성남시 분당구 정자일로 132 (정자동) 엠코헤리츠 4단지 1층 D105호 
TXXIJ3,37.3975108,127.1120412,육회한 김스지,13494) 경기도 성남시 분당구 대왕판교로 660 (삼평동) 1층 
GVE2IV,37.2870478,127.057739,백소정(광교점),16508) 경기도 수원시 영통구 광교중앙로 145 (이의동) 1층 
I1SA0M,37.2870478,127.057739,멘지(광교엘포트몰점),16508) 경기도 수원시 영통구 광교중앙로 145 (이의동) 1층 
147K4S,37.4020702,127.1104411,윈썸커피,13493) 경기도 성남시 분당구 판교역로 240 (삼평동) 1층 119호 
LSPIH8,37.4020702,127.1104411,디엣테이블,13493) 경기도 성남시 분당구 판교역로 240 (삼평동) 지하 1층 
5PKJJS,37.3797527,127.1157275,자연식당(구도로)_QR,13595) 경기도 성남시 분당구 수내로46번길 22 (수내동) 2층 
C6PLI6,37.3799454,127.1168097,깡우동(분당수내역점),13595) 경기도 성남시 분당구 수내로46번길 11 (수내동) 1층 107호 
K7UB3T,37.3942237,127.1103225,패티바이번(판교알파돔타워점),13529) 경기도 성남시 분당구 판교역로 152 (백현동) 1층 
DJM2CH,37.5708463,126.9799236,전주콩나물국밥,03157) 서울특별시 종로구 종로 19 (종로1가) 지하1층 104호
5ID3TF,37.4924056,127.0286494,공차(서초우성점),"06627) 서울특별시 서초구 사임당로 174 1층 105호(서초동, 강남미래타워) "
139PRV,37.4799022,126.8952238,덮밥장사장(구로지타워몰점),08393) 서울특별시 구로구 디지털로26길 38 (구로동) 지하1층 B232호(1층 122호) 
6XPEDZ,37.479637,126.89545,덮밥장사장(구로지타워몰점)_KIOSK,"08393) 서울 구로구 디지털로26길 38 지하1층 B232호 (1층122호)(구로동,G-Tower) "
OD_OYKDWY8,37.4799022,126.8952238,덮밥장사장 구로지타워몰점(오더),08393) 서울특별시 구로구 디지털로26길 38 (구로동) 지하1층 B232호(1층 122호) 
09QZGU,37.401288,127.1104439,계란집_QR,"13493) 경기도 성남시 분당구 판교역로 230 (삼평동) , B동 지하1층 B-107호(삼평동,삼환하이펙스) "
QKSINK,37.5091177,127.0374617,오므토토마토(강남본점)_TABLET,06240) 서울특별시 강남구 테헤란로4길 29 (역삼동) 1층2호
SAMJUF,37.3972437,127.1114371,손에손잡고(판교직영점)_POS,"13524) 경기 성남 분당구 대왕판교로606번길 47 , 1층 102호"
R6BTHU,37.5596345,126.8365226,이치규(발산역점),"07803) 서울특별시 강서구 공항대로 269-15 마곡동, 힐스테이트에코마곡, 211호 "
69RFD0,33.4839504,126.4791678,홍대개미(제주 노형점),63083) 제주특별자치도 제주시 노형8길 19 (노형동) 2층 
TMI2VD,33.4877936,126.4785543,낙지와쭈꾸미,63098) 제주특별자치도 제주시 월랑로4길 6 (노형동) 유진상가2호 
GP29LD,37.4120603,127.0980886,이자와(판교아이스퀘어점),13449) 경기도 성남시 수정구 창업로 17 판교아이스퀘어 F동 2층 제212호 
PARIS_22543,33.4911313,126.4806303,파리바게뜨(제주노형점),"63128) 제주도 제주시 남념로 40, 1층(연동) "
BB4ECQ,37.5048288,127.0464448,샐러디(선릉점),"06150) 서울특별시 강남구 테헤란로 327 (역삼동) 1층 101호, 2층 201-1 비호"
IDVDQ9,37.4772466,126.8851308,삼백돈돈카츠(가산퍼블릭점),"08513) 서울특별시 금천구 디지털로 178 (가산동) M-B119호(가산동, 가산퍼블릭) "
RCK3B9,37.4772466,126.8851308,빤닭빤닭(퍼블릭가산점),08513) 서울특별시 금천구 디지털로 178 (가산동) A동 지하1층 M-B135호(가산동) 
N8AUBJ,37.2983694,127.069955,파리바게뜨(광교상현역점),"16943) 경기도 용인시 수지구 광교중앙로 320 (상현동) 105호,504호 "
X00T4R,37.4853773,127.0373536,양재옥,06268) 서울특별시 강남구 남부순환로 2629 (도곡동) 1층(도곡동) 
KHK82F,37.4851585,127.0321415,자인뭉티기,06735) 서울특별시 서초구 강남대로37길 24-7 (서초동) 1층 
ZUV791,37.3777866,127.1118045,강순자옛맛김치찌개(수내점),13595) 경기도 성남시 분당구 황새울로200번길 9-7 (수내동) 1층 101-1호 
SELF_J9U9JE,37.5163729,126.7648918,용주옥(약대점),14500) 경기도 부천시 원미구 석천로 328-6 (약대동) 1층 102호 파크버거 
79ZQXY,37.5242667,126.92482,로스옥(여의도점),"07325) 서울 영등포구 국제금융로2길 24 여의도동, BNK금융타워 SK증권빌딩 지하 1층"
KFQ75S,37.3942392,127.1091496,살레르노(판교점),"13306) 경기도 성남시 분당구 판교역로 145, 라스트리트 2동 2층"
WFTMWY,37.3640967,127.1053513,데이롱카페(분당두산타워점)_KIOSK,"13557) 경기도 성남시 분당구 정자일로 155 , 24층 일부호(분당두산타워) "
ALOSTP,37.4924402,127.0114027,카츠공방(교대점),"06645) 서울특별시 서초구 반포대로30길 53 (서초동) 1층 (서초동, 조광빌딩) "
28SZFE,37.468947,126.433441,아워홈(T2 별미분식),22382) 인천광역시 중구 제2터미널대로 446 제2여객터미널 지하1층 교통센터(운서동) 
BKR_00000110,37.5546196,126.9707004,버거킹(전서울역점),04320) 서울특별시 용산구 한강대로 405
QYSOXY,37.5619185,126.826919,매머드익스프레스(마곡두산더랜드타워점),"07788) 서울특별시 강서구 마곡서로 152, 에이동 105호 "
IRX0OX,37.4831024,126.8994318,오징어 맛집,08392) 서울특별시 구로구 디지털로32가길 1 (구로동) 지하1층 
6WXMI6,37.2654904,127.077348,메가MGC커피(수원황골마을점),16706) 경기도 수원시 영통구 영통로 523 (영통동) 메가커피 
51TJPD,36.3970611,127.4248448,수자원(북부사업센터)_QR,34350) 대전광역시 대덕구 신탄진로 200 (연축동) 한국수자원공사 
5JTM7E,37.5369841,127.1304589,이디야(강동역점),05336) 서울특별시 강동구 천호대로 1065 (천호동  강동상떼빌 로비층 106호) 
GRT2GE,37.5635957,126.8277325,(주)동원홈푸드 포르투세븐(마곡코엑스점)_KIOSK,07797) 서울 강서구 마곡중앙로143 르웨스트시티 지하2층
XS4ESN,37.5635957,126.8277325,(주)동원홈푸드 크리스피프레시(마곡코엑스점)_KIOSK,07797) 서울 강서구 마곡중앙로143 르웨스트시티 지하2층
SELF_EQ1XPJ,37.5597226,126.8315076,에네넨커피(NNN COFFEE),07802) 서울특별시 강서구 공항대로 213 (마곡동) 1층 109호
5FNYSG,37.5725636,126.9818234,그린 앤 그레인,03150) 서울특별시 종로구 삼봉로 81 (수송동) 1층 144~144호 
QVUDGR,37.2962338,127.6363336,죠스떡볶이(여주점),12622) 경기도 여주시 홍문동 35
9Z3AHH,37.4021926,127.1105799,오덮,"13493) 경기 성남시 분당구 판교역로 240 삼평동, 삼환하이펙스A동 지하1층 "
QKZE85,37.4021926,127.1105799,오덮_KIOSK,"13493) 경기도 성남시 분당구 판교역로 240 (삼평동, 삼환하이펙스A동) 지하1층 B114-1호"
TMYOJ2,37.4930079,127.029309,정상마라,06626) 서울 서초구 사임당로 181 1층 103호 
WP0XF2,37.3636827,127.1063104,"1,2,3 카페",13558) 경기 성남시 분당구 정자로 13 101호(정자동) 
2ZAV9F,37.3382141,127.1016827,하루엔소쿠,"16827) 경기도 용인시 수지구 신수로 767 (동천동) 에이동 241호(동천동,분당수지 유타워) "
D8EBXP,37.5436838,127.0651587,서소문순두부보쌈_QR,05020) 서울특별시 광진구 동일로 128 (화양동) 1층 
LXGRAE,37.5435802,127.0556438,멘야마쯔리(성수점),04782) 서울특별시 성동구 연무장5가길 25 (성수동2가) SK V1타워 1층 111호 
334DEH,37.5389621,127.0550811,마하차이(성수점)_QR,04784) 서울특별시 성동구 뚝섬로 399 (성수동2가)  2층 
UHDSU6,37.400161,127.104948,블루포트(경기창조경제혁신센터점),13487) 경기도 성남시 분당구 대왕판교로645번길 12  1층 일부(삼평동) 
5C67BO,33.5059287,126.495995,미도인,"63115) 제주특별자치도 제주시 공항로 2 4층 용담이동, 제주국제공항 "
KSEMAO,37.5346055,127.1319379,홍콩,05382) 서울특별시 강동구 천호대로168길 24 (성내동) 1층 
WWB0AF,37.5365192,127.1322521,홍순우 홍제동순두부우동국수(강동역점),"05340) 서울특별시 강동구 천호대로 1077 (천호동, 래미안강동팰리스) 지하1층 B101-110호 "
ZTVP6A,37.5363273,127.1335461,햄찌와베찌(강동점),"05339) 서울특별시 강동구 천호대로 1089 (천호동, 강동 헤르셔) 1층 B32호 "
SEBEHD,37.5366463,127.133117,코코플랑,"05339) 서울특별시 강동구 천호대로 1089 (천호동, 강동 헤르셔) 지1층 B12호 "
J16M3T,37.5365857,127.1333503,치코스,"05339) 서울특별시 강동구 천호대로 1089 (천호동, 강동 헤르셔) 지1층 B43호 "
TKFDXG,37.5373274,127.1320094,청년다방(강동역점),"05340) 서울특별시 강동구 천호대로 1077 (천호동, 래미안강동팰리스) 상가동 1층 103호 111호, 112호 "
V9J9NO,37.5357787,127.1341277,청담동마녀김밥(강동점),"05339) 서울특별시 강동구 천호대로 1099 (천호동) 1층 103호(천호동, 정산타워빌딩) "
NHUNVN,37.5338997,127.1343028,전통춘천닭갈비_QR,05373) 서울특별시 강동구 양재대로103길 68 (성내동) 1층 
ZQ4O7V,37.5371547,127.1346741,이삭토스트(강동성심병원점),"05338) 서울특별시 강동구 성안로 155 (천호동, 강동역두산위브센티움) 1층 104호 "
O0BU83,37.5355811,127.1372969,우리콩 손두부,"05355) 서울특별시 강동구 진황도로 100 (길동, 하이브) 1층 102호 103호 "
V7XCJL,37.5358216,127.1312686,얌샘김밥(강동역점),"05380) 서울특별시 강동구 천호대로 1078 (성내동, 씨제이나인파크) 1층 "
M7PUE8,37.533668,127.1325594,성내맛집,05381) 서울특별시 강동구 천호대로170길 42 (성내동) 1층 
3O3TM6,37.8929546,127.0564452,사하커피_QR,11356) 경기도 동두천시 지행로 81 (지행동)  101호 
SJJKF0,37.8914049,127.0529932,봉구스밥버거(지행점)_QR,11350) 경기도 동두천시 중앙로 110-13 (지행동)  105호 
YFZ9FE,37.5341203,127.1361582,백년국수,05373) 서울특별시 강동구 천호대로176길 8 (성내동) 1층 
F13V1E,37.534903,127.1368043,모리향(강동점),05355) 서울특별시 강동구 천호대로 1125 (길동) 2층 가호 
YBD3OJ,37.5366326,127.1361531,모범떡볶이(길동점),"05354) 서울특별시 강동구 진황도로 85 (길동, 강동 큐브 2차) 1층 101호, 103호 "
TV1G94,37.5335116,127.1349496,맛있는닭한마리,05374) 서울특별시 강동구 양재대로103길 53 (성내동) 1층 
X3F87D,37.5372518,127.131426,만랩커피(강동ECT점),05340) 서울특별시 강동구 천호대로 1077 ECT동B102호 
S580AY,37.8920585,127.054602,마라천향마라탕_QR,11350) 경기도 동두천시 동두천로 119 (지행동) 204호 
MBTNAM,37.5366257,127.1313706,금호식당_QR,05340) 서울특별시 강동구 천호대로 1073 (천호동) 237호 
MMC7OT,37.5365097,127.1333919,강남교자(강동역점)_QR,"05339) 서울특별시 강동구 천호대로 1089 (천호동, 강동 헤르셔) 지1층 B122호 "
JOW4QB,37.2313889,127.0720127,에그박스(기흥서천점),17111) 경기도 용인시 기흥구 서천로201번길 11 (농서동) 지하1층 C-L146호
9JUHPX,37.5368114,127.1347478,샐러디(강동역점),05339) 서울특별시 강동구 진황도로 74 (천호동) 1층
266A60,37.5673178,126.8270022,설빙(마곡나루점),07788) 서울특별시 강서구 마곡중앙5로 6 2층 
4LYPH0,37.5635957,126.8277325,어부몽(코엑스마곡점),07797) 서울특별시 강서구 마곡중앙로 143 (마곡동) 지하 2층 
6UYVCY,37.5673431,126.8269959,역전우동0410(마곡나루역점),07788) 서울특별시 강서구 마곡중앙5로 6 1층 114호
7LA6J5,37.5751733,126.8280786,더벤티(마곡나루역점),07788) 서울특별시 강서구 마곡중앙로 161-11 (마곡동) 에이동 110호 더벤티(마곡나루역점) 
8XFHBW,37.5635957,126.8277325,상해루(코엑스마곡점),07797) 서울특별시 강서구 마곡중앙로 143 (마곡동) 지하 2층 
BKR_20004020,37.5635957,126.8277325,팀홀튼(마곡나루역코엑스점),07797) 서울 강서구 마곡중앙로 143 르웨스트시티 A동 1층 
BTFNHL,37.5635957,126.8277325,페이페이(마곡코엑스점),07797) 서울특별시 강서구 마곡중앙로 143 (마곡동) 지하 2층 
C4Q9F7,37.5653878,126.8234577,메가MGC커피(마곡엠밸리7단지점),"07798) 서울특별시 강서구 마곡서로 133 , 714동 1층 101호 "
CJFDCP,37.5673178,126.8270022,전주옥가마솥곰탕,07788) 서울특별시 강서구 마곡중앙5로 6 (마곡동) 서관 B123호 
DA83LL,37.5671562,126.8272843,KFC(마곡나루),"07788) 서울특별시 강서구 마곡중앙5로 6, 마곡나루역보타닉푸르지오시티 1층 KFC 마곡나루 "
ILXTP4,37.5635957,126.8277325,오제제(마곡코엑스점),07797) 서울특별시 강서구 마곡중앙로 143 (마곡동) 지하2층 
IZO5N6,37.5678801,126.8265667,쥬씨 (마곡나루점),07788) 서울 강서구 마곡중앙로 161-8 A동 1층 112호 
KVTSTP,37.5647746,126.825252,커피기업(코엑스마곡점),07797) 서울특별시 강서구 마곡중앙로 143 (마곡동) 지하 2층 
VEAYOT,37.5673178,126.8270022,등촌샤브칼국수(마곡점),07788) 서울특별시 강서구 마곡중앙5로 6 (마곡동) 2층 
1FU04Y,37.4484469,126.8840572,본죽&비빔밥(광명소하지구점),14316) 경기도 광명시 금하로  464
BF1ZTZ,37.4476513,126.8839483,맘스터치(광명소하점),14316) 경기도 광명시 소하로 81 (소하동) 맘스터치(광명소하점) 
XYLQN5,37.4476636,126.8817606,맥도날드(광명소하DT점),14316) 경기도 광명시 오리로512 맥도날드(광명소하DT점)
IVSVAX,37.5128231,127.0216591,봉산평양 냉면,06044) 서울특별시 강남구 학동로1길 21 (논현동) 1층 
KRFIAO,37.5136787,127.0317124,신사우동_QR,06038) 서울특별시 강남구 강남대로 594 (논현동) 1층 
QE4UX0,37.5142518,127.0186371,강소식당(신사본점),06526) 서울특별시 서초구 신반포로47길 87 (잠원동) 1층 
5XT3UL,37.4037875,127.0999418,정원,"13486) 경기도 성남시 분당구 판교로255번길 9-22 (삼평동) 1층 110-1,110-2호 "
20LTIC,37.2799242,127.1191737,락풀,16976) 경기도 용인시 기흥구 기흥로 58-1 (구갈동)  A동 B112호 롹풀 ROCKPOOL 
GIN4H6,37.4287129,126.6637243,필바든치킨_QR,21904) 인천광역시 연수구 청학로16번길 3 (청학동) 1층 
XOA2NJ,37.4280665,126.6668137,카페인중독(연수점)_QR,21904) 인천광역시 연수구 청학로16번길 61-1 (청학동)  1층 
KNDCY4,37.4282329,126.6619037,조선삼겹살(본점)_QR,21903) 인천광역시 연수구 청학로11번길 28 (청학동) 지상1층 
WM7993,37.4280022,126.6613773,가미초밥(청학점)_QR,21903) 인천광역시 연수구 청솔로 18 (청학동) 1층 
2SJ8TW,37.6542154,126.7759541,곤트란쉐리에(일산차병원점),10414) 경기도 고양시 일산동구 중앙로 1205 (장항동) 1층 
5BSL3Q,37.6542154,126.7759541,강남교자(일산차병원점),10414) 경기도 고양시 일산동구 중앙로 1205 (장항동) 2층 213호
BYM3TC,37.6542154,126.7759541,본우리반상(일산차병원점),10414) 경기도 고양시 일산동구 중앙로 1205 (장항동) 2층
N88R2C,37.6542154,126.7759541,벤티프레소(일산차병원점),10414) 경기도 고양시 일산동구 중앙로 1205 (장항동) 3층
ZETBF8,37.6542154,126.7759541,김가네(일산차병원점)_QR,10414) 경기도 고양시 일산동구 중앙로 1205 (장항동) 2층 
6NR518,37.3404299,127.109348,맛있는생각(분당2지점),"13637) 경기도 성남시 분당구 성남대로 52 (구미동) 101~102호(구미동,그랜드프라자) "
N9ORSW,37.4037875,127.0999418,정원,13486) 경기도 성남시 분당구 판교로255번길 9-22 (삼평동) 1층 
S89M15,37.3002422,127.0713378,서가스시_QR,16942) 경기도 용인시 수지구 광교중앙로 338 (상현동) c동 1층 R140호 
3XXR8P,37.4846893,127.0396275,오대산산채전문점,06739) 서울특별시 서초구 남부순환로 2640-11 (양재동) 1층 
SM6H1N,37.4832384,127.0384778,만두랑,06742) 서울특별시 서초구 남부순환로356길 39 (양재동) 2층 201호 
75G22A,37.4037875,127.0999418,카페두레브,13486) 경기도 성남시 분당구 판교로255번길 9-22 (삼평동) 1층 141호 
I945VA,37.5384348,127.1310621,생달막국수,05336) 서울특별시 강동구 진황도로 36 1층 8호 
